[
  {
    "name": "Caboradio",
    "url": "https://listen.radioking.com/radio/281506/stream/327253",
    "codec": "MP3",
    "bitrate": 128,
    "needsResolve": false,
    "lat": 15.909168583480565,
    "lon": -23.444824218750004,
    "language": ""
  },
  {
    "name": "Cidade FM Cabo Verde",
    "url": "https://hts02.brascast.com:9288/stream",
    "codec": "AAC",
    "bitrate": 128,
    "needsResolve": false,
    "lat": 14.911121900092033,
    "lon": -23.518986289957503,
    "language": ""
  },
  {
    "name": "Crioula FM",
    "url": "https://nl.digitalrm.pt:8098/stream",
    "codec": "MP3",
    "bitrate": 128,
    "needsResolve": false,
    "lat": 14.916662768540538,
    "lon": -23.526746351871797,
    "language": ""
  },
  {
    "name": "Kriola",
    "url": "https://stream.laut.fm/kriola",
    "codec": "MP3",
    "bitrate": 128,
    "needsResolve": false,
    "lat": 16.885911443214972,
    "lon": -24.985033387067787,
    "language": ""
  },
  {
    "name": "Praia FM",
    "url": "https://mpc1.mediacp.eu:8030/stream",
    "codec": "MP3",
    "bitrate": 128,
    "needsResolve": false,
    "lat": 14.919649044929775,
    "lon": -23.506857966409356,
    "language": ""
  },
  {
    "name": "RADIO ALFA - CV",
    "url": "http://uk6freenew.listen2myradio.com:10110/stream",
    "codec": "MP3",
    "bitrate": 192,
    "needsResolve": false,
    "lat": 14.911209764531709,
    "lon": -23.53786142602951,
    "language": ""
  },
  {
    "name": "RCE Radio Comunitaria dos Espargos",
    "url": "https://stream-286.zeno.fm/c2sm9z24muhvv?zt=eyJhbGciOiJIUzI1NiJ9.eyJzdHJlYW0iOiJjMnNtOXoyNG11aHZ2IiwiaG9zdCI6InN0cmVhbS0yODYuemVuby5mbSIsInRtIjpmYWxzZSwicnR0bCI6NSwianRpIjoibGRacGlYcERTcWkzcFNobDl1YzQ2ZyIsImlhdCI6MTc4MTA4NjUyNiwiZXhwIjoxNzgxMDg2NTg2fQ.6bhZuQB8aTkxxxwpkcB2-JHY0oHaGIrAHxpGHPMNhfU",
    "codec": "MP3",
    "bitrate": 0,
    "needsResolve": false,
    "lat": 16.757015697912717,
    "lon": -22.94266094721562,
    "language": ""
  },
  {
    "name": "RCV Radio Cabo Verde",
    "url": "https://a3.asurahosting.com:6980/radio.mp3",
    "codec": "MP3",
    "bitrate": 320,
    "needsResolve": false,
    "lat": null,
    "lon": null,
    "language": ""
  },
  {
    "name": "RCV+ Radio Cabo Verde Jovem",
    "url": "https://a8.my-control-panel.com:8670/radio.mp3",
    "codec": "MP3",
    "bitrate": 320,
    "needsResolve": false,
    "lat": 14.910012568866362,
    "lon": -23.51568242159757,
    "language": ""
  },
  {
    "name": "RTE – Radio Educativa",
    "url": "https://a13.my-control-panel.com/listen/rte/radio.mp3",
    "codec": "MP3",
    "bitrate": 192,
    "needsResolve": false,
    "lat": 14.920483857503331,
    "lon": -23.50692301908292,
    "language": ""
  },
  {
    "name": "Radio Atlantico",
    "url": "https://stream.cvhosting.uk/listen/radio_atlantico/radio.mp3",
    "codec": "MP3",
    "bitrate": 128,
    "needsResolve": false,
    "lat": 16.61782657274705,
    "lon": -24.296927658044563,
    "language": ""
  },
  {
    "name": "Radio Cabo Verde International",
    "url": "http://41.221.203.141:8090/;",
    "codec": "MP3",
    "bitrate": 0,
    "needsResolve": false,
    "lat": 16.600163977511645,
    "lon": -22.909809217945813,
    "language": ""
  },
  {
    "name": "Radio Comercial",
    "url": "https://stream-175.zeno.fm/loombkxpekavv?zt=eyJhbGciOiJIUzI1NiJ9.eyJzdHJlYW0iOiJsb29tYmt4cGVrYXZ2IiwiaG9zdCI6InN0cmVhbS0xNzUuemVuby5mbSIsInJ0dGwiOjUsImp0aSI6ImlBZGFIMXN6U2wtTm9NcXpsS21nTVEiLCJpYXQiOjE3ODAyMjUwMTEsImV4cCI6MTc4MDIyNTA3MX0.uRzV1zuJQ28KAdi6l9JGZ8hhp5gIbltCUWgFAgDF3Pw",
    "codec": "MP3",
    "bitrate": 0,
    "needsResolve": false,
    "lat": 14.91119965673916,
    "lon": -23.515424769490537,
    "language": ""
  },
  {
    "name": "Radio La Mueve",
    "url": "https://sunaer-stream.com:7007/LA_MUEVE_CADENA_CV_SD",
    "codec": "MP3",
    "bitrate": 128,
    "needsResolve": false,
    "lat": 14.91555916779722,
    "lon": -23.52902313064047,
    "language": ""
  },
  {
    "name": "Radio Maria - Cabo Verde",
    "url": "https://dreamsiteradiocp4.com/proxy/rmcapover?mp=/stream",
    "codec": "MP3",
    "bitrate": 128,
    "needsResolve": false,
    "lat": 16.886622808221773,
    "lon": -24.97544255795547,
    "language": ""
  },
  {
    "name": "Radio Morabeza",
    "url": "https://sp0.redeaudio.com:10988/9798/stream",
    "codec": "MP3",
    "bitrate": 128,
    "needsResolve": false,
    "lat": 16.87987991753247,
    "lon": -24.985967005729687,
    "language": ""
  },
  {
    "name": "Radio de Santo Antao - RSA",
    "url": "https://stream.cvhosting.uk/listen/radio_santo_antao/radio.mp3?refresh=1781085695418",
    "codec": "MP3",
    "bitrate": 128,
    "needsResolve": false,
    "lat": 17.07165791817416,
    "lon": -25.170865130702925,
    "language": ""
  },
  {
    "name": "Ribeira Brava FM - Ilha de Sao Nicolau",
    "url": "https://sc1.xdevel.com/ribeirabrava",
    "codec": "MP3",
    "bitrate": 128,
    "needsResolve": false,
    "lat": 16.612600120001144,
    "lon": -24.29705599669865,
    "language": ""
  }
]