[
  {
    "name": "+2ToneRoom Radio (GDL) - Online - www.2toneroom.net - Guadalajara, Jalisco",
    "url": "http://209.141.43.200:10018/stream",
    "codec": "MP3",
    "bitrate": 128,
    "needsResolve": false,
    "lat": 20.6735464074718,
    "lon": -103.33886146545412,
    "language": "spanish"
  },
  {
    "name": "+70s Disco Nights Radio (MTY) - Online - www.70sdisconights.com - Grupo Digital Retroland - Monterrey, Nuevo León",
    "url": "https://panel.retrolandigital.com/listen/70s_disco_nights/listen",
    "codec": "AAC",
    "bitrate": 128,
    "needsResolve": false,
    "lat": 25.681064817871917,
    "lon": -100.31770706176758,
    "language": "spanish"
  },
  {
    "name": "+Acceso Total (Mexicali) - Online - www.eltoquefm.com - El Toque FM - Mexicali, Baja California",
    "url": "https://us10a.serverse.com/proxy/acce8712?mp=/;",
    "codec": "MP3",
    "bitrate": 320,
    "needsResolve": false,
    "lat": 32.62531825411631,
    "lon": -115.4502582550049,
    "language": "spanish"
  },
  {
    "name": "+Azteka Radio (Río Verde) - Online - www.aztekaradio.com - Río Verde, San Luis Potosí",
    "url": "https://streamingcwsradio30.com/8176/;",
    "codec": "MP3",
    "bitrate": 128,
    "needsResolve": false,
    "lat": 21.931861990275003,
    "lon": -99.99197959899904,
    "language": "spanish"
  },
  {
    "name": "+Azul Radio (Mérida) - Online - azulradio.org - Mérida, Yucatán",
    "url": "https://miradiost.com/listen/azulradio/radio.mp3",
    "codec": "MP3",
    "bitrate": 128,
    "needsResolve": false,
    "lat": 20.968096969603973,
    "lon": -89.622859954834,
    "language": "spanish"
  },
  {
    "name": "+Azul Radio (Veracruz) - Online - azulradio.org - Veracruz, Veracruz",
    "url": "https://miradiost.com/listen/azulradioveracruz/radio.mp3",
    "codec": "MP3",
    "bitrate": 128,
    "needsResolve": false,
    "lat": 19.204758828083285,
    "lon": -96.14084243774414,
    "language": "spanish"
  },
  {
    "name": "+Bella Voces Radio (CDMX) - Online - www.bellavocesmexico.com - Bella Voces México - Ciudad de México",
    "url": "http://radio.redcoahuila.net:8116/stream",
    "codec": "MP3",
    "bitrate": 128,
    "needsResolve": false,
    "lat": 19.434790938353725,
    "lon": -99.13290023803712,
    "language": "spanish"
  },
  {
    "name": "+Café Romántico Radio (MTY) - Online - www.caferomanticoradio.com - Grupo Digital Retroland - Monterrey, Nuevo León",
    "url": "https://panel.retrolandigital.com/radio/8110/listen",
    "codec": "AAC",
    "bitrate": 96,
    "needsResolve": false,
    "lat": 25.680791667045295,
    "lon": -100.31521797180176,
    "language": "spanish"
  },
  {
    "name": "+Convoy En Vivo (CDMX) - Online - www.convoynetwork.com - Convoy Network - Ciudad de México",
    "url": "https://live.convoynetwork.com/stream",
    "codec": "AAC",
    "bitrate": 64,
    "needsResolve": false,
    "lat": 19.434143416073223,
    "lon": -99.1325569152832,
    "language": "spanish"
  },
  {
    "name": "+Estrellas de los 80's Radio (MTY) - Online - www.estrellasdelos80s.com - Grupo Digital Retroland - Monterrey, Nuevo León",
    "url": "https://panel.retrolandigital.com/listen/estrellas_de_los_80s/listen",
    "codec": "AAC",
    "bitrate": 96,
    "needsResolve": false,
    "lat": 25.68161111764662,
    "lon": -100.31650543212892,
    "language": "spanish"
  },
  {
    "name": "+Exclusively Adele",
    "url": "https://nl4.mystreaming.net/er-app/adele/icecast.audio",
    "codec": "MP3",
    "bitrate": 0,
    "needsResolve": false,
    "lat": null,
    "lon": null,
    "language": "english"
  },
  {
    "name": "+Exclusively Ariana Grande",
    "url": "https://streaming.exclusive.radio/er-app/arianagrande/icecast.audio",
    "codec": "MP3",
    "bitrate": 0,
    "needsResolve": false,
    "lat": null,
    "lon": null,
    "language": "english"
  },
  {
    "name": "+Exclusively Avicii",
    "url": "https://nl4.mystreaming.net/er-app/avicii/icecast.audio",
    "codec": "MP3",
    "bitrate": 0,
    "needsResolve": false,
    "lat": null,
    "lon": null,
    "language": "english"
  },
  {
    "name": "+Exclusively Bad Bunny",
    "url": "https://streaming.exclusive.radio/er-app/badbunny/icecast.audio",
    "codec": "MP3",
    "bitrate": 0,
    "needsResolve": false,
    "lat": null,
    "lon": null,
    "language": "english"
  },
  {
    "name": "+Exclusively Bruno Mars",
    "url": "https://nl4.mystreaming.net/er-app/brunomars/icecast.audio",
    "codec": "MP3",
    "bitrate": 0,
    "needsResolve": false,
    "lat": null,
    "lon": null,
    "language": "english"
  },
  {
    "name": "+Exclusively Calvin Harris",
    "url": "https://streaming.exclusive.radio/er-app/calvinharris/icecast.audio",
    "codec": "MP3",
    "bitrate": 0,
    "needsResolve": false,
    "lat": null,
    "lon": null,
    "language": "english"
  },
  {
    "name": "+Exclusively Charlie Puth",
    "url": "https://nl4.mystreaming.net/er-app/charlieputh/playlist.m3u8",
    "codec": "MP3",
    "bitrate": 128,
    "needsResolve": false,
    "lat": null,
    "lon": null,
    "language": "english"
  },
  {
    "name": "+Exclusively Dua Lipa",
    "url": "https://streaming.exclusive.radio/er-app/dualipa/icecast.audio",
    "codec": "MP3",
    "bitrate": 0,
    "needsResolve": false,
    "lat": null,
    "lon": null,
    "language": "english"
  },
  {
    "name": "+Exclusively Green Day",
    "url": "https://nl4.mystreaming.net/er-app/greenday/icecast.audio",
    "codec": "MP3",
    "bitrate": 0,
    "needsResolve": false,
    "lat": null,
    "lon": null,
    "language": "english"
  },
  {
    "name": "+Exclusively Imagine Dragons",
    "url": "https://nl4.mystreaming.net/er-app/imaginedragons/icecast.audio",
    "codec": "MP3",
    "bitrate": 0,
    "needsResolve": false,
    "lat": null,
    "lon": null,
    "language": "english"
  },
  {
    "name": "+Exclusively One Direction",
    "url": "https://streaming.exclusive.radio/er-app/onedirection/icecast.audio",
    "codec": "MP3",
    "bitrate": 0,
    "needsResolve": false,
    "lat": null,
    "lon": null,
    "language": "english"
  },
  {
    "name": "+Exclusively One Direction HITS",
    "url": "https://streaming.exclusive.radio/er-app/onedirectionhits/icecast.audio",
    "codec": "MP3",
    "bitrate": 0,
    "needsResolve": false,
    "lat": null,
    "lon": null,
    "language": "english"
  },
  {
    "name": "+Exclusively Shakira",
    "url": "https://streaming.exclusive.radio/er-app/shakira/icecast.audio",
    "codec": "MP3",
    "bitrate": 0,
    "needsResolve": false,
    "lat": null,
    "lon": null,
    "language": "english"
  },
  {
    "name": "+La Fogonera (Matehuala) - Online - www.radiolafogonera.com - Matehuala, San Luis Potosí",
    "url": "https://fogonera.b-cdn.net/stream",
    "codec": "AAC+",
    "bitrate": 64,
    "needsResolve": false,
    "lat": 23.64785836097045,
    "lon": -100.643949508667,
    "language": "spanish"
  },
  {
    "name": "+Oxign Radio (Audio Biblia)",
    "url": "https://stream9.mexiserver.com/8168/stream",
    "codec": "MP3",
    "bitrate": 256,
    "needsResolve": false,
    "lat": null,
    "lon": null,
    "language": "spanish"
  },
  {
    "name": "+Oxygn Radio (Atlixco) - Online - www.oxygenradio.com - Atlixco, Puebla",
    "url": "https://stream9.mexiserver.com:8168/stream",
    "codec": "MP3",
    "bitrate": 320,
    "needsResolve": false,
    "lat": 18.9092718419472,
    "lon": -98.43805789947513,
    "language": "spanish"
  },
  {
    "name": "+Pixel Digital Radio (Tacámbaro) - Online - publicidadckv.wordpress.com - Tacámbaro, Michoacán",
    "url": "https://stream.zeno.fm/tn3ch5scy38uv",
    "codec": "AAC",
    "bitrate": 0,
    "needsResolve": false,
    "lat": 19.236991148425773,
    "lon": -101.45792484283449,
    "language": "spanish"
  },
  {
    "name": "+Radio Bemba (Veracruz) - Online - www.radiobembaveracruz.com - Domingo Lucas Ramírez - Veracruz, Veracruz",
    "url": "https://radio.e-ver.com.mx:8001/live",
    "codec": "MP3",
    "bitrate": 128,
    "needsResolve": false,
    "lat": 19.201716737163373,
    "lon": -96.13835334777832,
    "language": "spanish"
  },
  {
    "name": "+Radio en Redes (Atlixco) - Online - www.radioenredes.com - Atlixco, Puebla",
    "url": "https://turadiodigital.com/8014/;",
    "codec": "AAC+",
    "bitrate": 0,
    "needsResolve": false,
    "lat": 18.909677834742457,
    "lon": -98.43780040740968,
    "language": "spanish"
  },
  {
    "name": "+Somos + Radio (GDL) - Online - www.somosmasradio.com - Somos+Radio - Guadalajara, Jalisco",
    "url": "https://streaming.servicioswebmx.com/8036/stream",
    "codec": "MP3",
    "bitrate": 128,
    "needsResolve": false,
    "lat": 20.675757255485728,
    "lon": -103.33997726440433,
    "language": "spanish"
  },
  {
    "name": "+Trónica FM (Sayula) - Online - www.tronica.fm - Sayula, Jalisco",
    "url": "https://stream.tronica.fm:8000/radio.mp3",
    "codec": "MP3",
    "bitrate": 192,
    "needsResolve": false,
    "lat": 19.883098238689136,
    "lon": -103.59944343566896,
    "language": "spanish"
  },
  {
    "name": "+Zona Grupera (MTY) - Online - www.radio-en-vivo.mx/zona-grupera - Monterrey, Nuevo León",
    "url": "https://az11.yesstreaming.net:8500/;",
    "codec": "MP3",
    "bitrate": 128,
    "needsResolve": false,
    "lat": 25.680791667045295,
    "lon": -100.31521797180176,
    "language": "spanish"
  },
  {
    "name": "100.3 Aztlán Radio (Tepic) - 100.3 FM - XHTNY-FM - Sistema de Radio y Televisión de Nayarit - Tepic, Nayarit",
    "url": "https://stream-179.zeno.fm/0zqsdz9xoamuv?zt=eyJhbGciOiJIUzI1NiJ9.eyJzdHJlYW0iOiIwenFzZHo5eG9hbXV2IiwiaG9zdCI6InN0cmVhbS0xNzkuemVuby5mbSIsInRtIjpmYWxzZSwicnR0bCI6NSwianRpIjoiZDFSSnU2XzJRS202NXJITEpCWFFUUSIsImlhdCI6MTc3NTMwMzg3MywiZXhwIjoxNzc1MzAzOTMzfQ.KPqhYZsrLr5yBR5PgARHPuunh1ebt32z6_1dWRk9frE",
    "codec": "MP3",
    "bitrate": 0,
    "needsResolve": false,
    "lat": 21.513373650926734,
    "lon": -104.89110946655276,
    "language": "spanish"
  },
  {
    "name": "100.5 La Reverenda (Ciudad del Carmen) - 100.5 FM - XHBCC-FM - Corporativo Rivas - Ciudad del Carmen, Campeche",
    "url": "https://s2.mexside.net:7162/;",
    "codec": "AAC+",
    "bitrate": 128,
    "needsResolve": false,
    "lat": 18.65313860889904,
    "lon": -91.81544780731204,
    "language": "spanish"
  },
  {
    "name": "101.9 Exa FM (Celaya) - 101.9 FM - XHEOF-FM - Promomedios - Celaya, Guanajuato101.9 Exa FM (Celaya) - 101.9 FM - XHEOF-FM - Promomedios - Celaya, Guanajuato",
    "url": "http://144.217.67.108:9148/stream",
    "codec": "MP3",
    "bitrate": 96,
    "needsResolve": false,
    "lat": 20.522821885656512,
    "lon": -100.81234931945802,
    "language": "spanish"
  },
  {
    "name": "102.5 Antena (Chihuahua) - 102.5 FM - XHES-FM - GRD Multimedia - Chihuahua, Chihuahua",
    "url": "https://streamingcwsradio30.com:7093/stream",
    "codec": "MP3",
    "bitrate": 128,
    "needsResolve": false,
    "lat": 28.637231453706857,
    "lon": -106.07617378234865,
    "language": "spanish"
  },
  {
    "name": "102.9 Buenavista Radio (Ciudad Valles) - 102.9 FM - XHCSBY-FM - Medios Digitales Culturales de la Huasteca, A.C. - Ciudad Valles, San Luis Potosí",
    "url": "https://cast1.asurahosting.com/proxy/bnavista/stream",
    "codec": "MP3",
    "bitrate": 320,
    "needsResolve": false,
    "lat": 21.99327727532109,
    "lon": -99.0103340148926,
    "language": "spanish"
  },
  {
    "name": "103.1 Amor (León) - 103.1 FM - XHXF-FM - Grupo ACIR - León, Guanajuato",
    "url": "https://14623.live.streamtheworld.com:443/XHXFAAC.aac",
    "codec": "AAC+",
    "bitrate": 48,
    "needsResolve": false,
    "lat": 21.124179104975525,
    "lon": -101.6831874847412,
    "language": "spanish"
  },
  {
    "name": "1030 AM (Ciudad de México) - 1030 AM - XEQR-AM - Grupo Radio Centro - Ciudad de México",
    "url": "https://playerservices.streamtheworld.com/api/livestream-redirect/XEQR_AM_SC",
    "codec": "MP3",
    "bitrate": 48,
    "needsResolve": false,
    "lat": 19.436323734711568,
    "lon": -99.13779258728027,
    "language": "spanish"
  },
  {
    "name": "104.5 Amor Es (Aguascalientes) - 104.5 FM - XHDC-FM - Grupo Radiofónico ZER - Aguascalientes, Aguascalientes",
    "url": "https://cast.zuperdns.net/8026/stream",
    "codec": "MP3",
    "bitrate": 80,
    "needsResolve": false,
    "lat": 21.881740469539572,
    "lon": -102.29541778564456,
    "language": "spanish"
  },
  {
    "name": "104.5 Vida Romántica (Durango) - 104.5 FM - XHDRD-FM - Radiorama Durango - Durango, Durango",
    "url": "https://stream-159.zeno.fm/g1c3rka6dkhvv?zt=eyJhbGciOiJIUzI1NiJ9.eyJzdHJlYW0iOiJnMWMzcmthNmRraHZ2IiwiaG9zdCI6InN0cmVhbS0xNTkuemVuby5mbSIsInRtIjpmYWxzZSwicnR0bCI6NSwianRpIjoiOVpYS1h4cjFTUDJSX0toTVFfd1ZYQSIsImlhdCI6MTc3MzAxMDY1NywiZXhwIjoxNzczMDEwNzE3fQ.lCqGETaxJIL72T3Vp4ydZTfw8drN9YlsXNASsmNlZXc",
    "codec": "MP3",
    "bitrate": 0,
    "needsResolve": false,
    "lat": 24.025068858349975,
    "lon": -104.65456008911134,
    "language": "spanish"
  },
  {
    "name": "105 DIGITAL 105.3 (Aguascalientes) - 105.3 FM - XHUZ-FM - Radiogrupo - Aguascalientes, Aguascalientes",
    "url": "http://201.159.48.106:8080/",
    "codec": "MP3",
    "bitrate": 0,
    "needsResolve": false,
    "lat": 21.882171060607096,
    "lon": -102.2941303253174,
    "language": "spanish"
  },
  {
    "name": "105.5 Vida Romántica (Piedras Negras) - 105.5 FM - XHRE-FM - Radiorama Piedras Negras - Piedras Negras, Coahuila",
    "url": "https://stream-159.zeno.fm/8e2a8v35dkhvv?zt=eyJhbGciOiJIUzI1NiJ9.eyJzdHJlYW0iOiI4ZTJhOHYzNWRraHZ2IiwiaG9zdCI6InN0cmVhbS0xNTkuemVuby5mbSIsInRtIjpmYWxzZSwicnR0bCI6NSwianRpIjoiZW5MVy05cmpTSjJSQjRTMUE1M0JwZyIsImlhdCI6MTc3NTk3OTkyNCwiZXhwIjoxNzc1OTc5OTg0fQ.-z_xnuUrOrcnxXrBMEamCDsvZuIJBJwa4a8gd5YBI0A",
    "codec": "MP3",
    "bitrate": 0,
    "needsResolve": false,
    "lat": 28.69230172853433,
    "lon": -100.540566444397,
    "language": "spanish"
  },
  {
    "name": "106.5 Mix (Querétaro) - 106.5 FM - XHGV-FM - Grupo ACIR - Querétaro, Querétaro",
    "url": "https://22973.live.streamtheworld.com:443/XHGVAAC.aac",
    "codec": "AAC+",
    "bitrate": 48,
    "needsResolve": false,
    "lat": 20.594147880132734,
    "lon": -100.39049148559572,
    "language": "spanish"
  },
  {
    "name": "106.9 Classic (MTY) - 106.9 FM - XHPJ-FM - Multimedios Radio - Monterrey, Nuevo León",
    "url": "https://mmradio-lb.mmlabs.mx/xhpjfm",
    "codec": "AAC",
    "bitrate": 93,
    "needsResolve": false,
    "lat": 25.681101076784145,
    "lon": -100.31538963317873,
    "language": "spanish"
  },
  {
    "name": "106.9 La Poderosa (Veracruz) - 106.9 FM - XHQT-FM - Grupo AvanRadio Radiorama - Veracruz, Veracruz",
    "url": "https://secure.radiorama.mx:2183/",
    "codec": "MP3",
    "bitrate": 96,
    "needsResolve": false,
    "lat": 19.187968447573603,
    "lon": -96.13462775945663,
    "language": "spanish"
  },
  {
    "name": "107.7 Extasis Digital (Cuernavaca) - 107.7 FM - XHASM-FM - Radiorama Morelos - Cuernavaca, Morelos",
    "url": "https://stream-281.zeno.fm/476gbad3ekhvv?zt=eyJhbGciOiJIUzI1NiJ9.eyJzdHJlYW0iOiI0NzZnYmFkM2VraHZ2IiwiaG9zdCI6InN0cmVhbS0yODEuemVuby5mbSIsInRtIjpmYWxzZSwicnR0bCI6NSwianRpIjoiUXVwMUZUZGpUU2VjSEY5dkp5bEs5ZyIsImlhdCI6MTc3NzEwMDkxMCwiZXhwIjoxNzc3MTAwOTcwfQ.78MyGbjOs6RFJ1aZAAkP-jcdm6ziVW4vnSAJBcK9GRU",
    "codec": "MP3",
    "bitrate": 0,
    "needsResolve": false,
    "lat": 18.92281243857957,
    "lon": -99.23443794250488,
    "language": "spanish"
  },
  {
    "name": "1130 Radio Chapingo (Chapingo) - 1130 AM - XECHAP- AM - Universidad Autónoma Chapingo - Chapingo, Estado de México",
    "url": "https://listen.mixlr.com/2ffbf6c3c800599f1c4c7d3ce0e99cfe",
    "codec": "MP3",
    "bitrate": 96,
    "needsResolve": false,
    "lat": 19.488658079925933,
    "lon": -98.8824784755707,
    "language": "spanish"
  },
  {
    "name": "2025 FM 92.3 (Morelia) - 92.3 FM - XHLY-FM - Cadena RASA - Morelia, Michoacán",
    "url": "http://s4.mexside.net:7040/;",
    "codec": "MP3",
    "bitrate": 192,
    "needsResolve": false,
    "lat": 19.703811652788747,
    "lon": -101.19257926940918,
    "language": "spanish"
  },
  {
    "name": "540 La Bestia Grupera (CDMX) - 540 AM - XEWF-AM - Grupo Audiorama Comunicaciones - Ciudad de México",
    "url": "https://ss1.audiorama.com.mx:6584/stream",
    "codec": "MP3",
    "bitrate": 96,
    "needsResolve": false,
    "lat": 19.432848363766464,
    "lon": -99.13290023803712,
    "language": "spanish"
  },
  {
    "name": "550 Aztlán Radio (Tepic) - 550 AM - XEGNAY-AM - Sistema de Radio y Televisión de Nayarit - Tepic, Nayarit",
    "url": "https://stream-176.zeno.fm/h1t89686h0hvv?zt=eyJhbGciOiJIUzI1NiJ9.eyJzdHJlYW0iOiJoMXQ4OTY4NmgwaHZ2IiwiaG9zdCI6InN0cmVhbS0xNzYuemVuby5mbSIsInRtIjpmYWxzZSwicnR0bCI6NSwianRpIjoiMktOQVVacGVSaktZb0xNLWo2YldrQSIsImlhdCI6MTc3OTMxNDA4NywiZXhwIjoxNzc5MzE0MTQ3fQ.leG8TB1jRmGfQwpqwYsAw_2ou1Jj6ppEANd87I6xm3g",
    "codec": "MP3",
    "bitrate": 0,
    "needsResolve": false,
    "lat": 21.513054246432876,
    "lon": -104.89076614379884,
    "language": "spanish"
  },
  {
    "name": "620",
    "url": "https://statics-v2.streema.com/static/audios/sample.ea78c3d52389.mp3",
    "codec": "MP3",
    "bitrate": 0,
    "needsResolve": false,
    "lat": 21.420342429871233,
    "lon": -100.107421875,
    "language": ""
  },
  {
    "name": "690 El Fonógrafo (CDMX) - 690 AM - XEN-AM - Grupo Radio Centro - Ciudad de México",
    "url": "https://15693.live.streamtheworld.com:443/XEN_AMAAC.aac",
    "codec": "AAC+",
    "bitrate": 128,
    "needsResolve": false,
    "lat": 19.43369571361176,
    "lon": -99.1329860687256,
    "language": "spanish"
  },
  {
    "name": "860 LÍDER INFORMATIVO (Ciudad Juárez) - 860 AM - XEZOL-AM - MegaRadio - Ciudad Juárez, Chihuahua",
    "url": "https://stream.zeno.fm/wwsc28r91rhvv",
    "codec": "MP3",
    "bitrate": 0,
    "needsResolve": false,
    "lat": 31.69162396361992,
    "lon": -106.42619132995608,
    "language": "spanish"
  },
  {
    "name": "88.1 El Viejón (Tantoyuca) - 88.1 FM - XHCCCR-FM - Grupo Franco Comunicaciones del Norte - Tantoyuca, Veracruz",
    "url": "https://sp04.servidorrprivado.com:7037/stream",
    "codec": "MP3",
    "bitrate": 128,
    "needsResolve": false,
    "lat": 21.35314186082671,
    "lon": -98.22644233703616,
    "language": "spanish"
  },
  {
    "name": "88.9 La Invasora (Perote) - 88.9 FM - XHBE-FM - Molina Comunicaciones - Perote, Veracruz",
    "url": "https://sp2.servidorrprivado.com/8244/stream",
    "codec": "MP3",
    "bitrate": 96,
    "needsResolve": false,
    "lat": 19.562178536200772,
    "lon": -97.2426509857178,
    "language": "spanish"
  },
  {
    "name": "88.9 NOTICIAS: Información Que Sirve. Tráfico y Clima cada 15 Minutos",
    "url": "https://playerservices.streamtheworld.com/api/livestream-redirect/XHMFMAAC_SC.aac",
    "codec": "AAC+",
    "bitrate": 48,
    "needsResolve": false,
    "lat": 19.434790938353725,
    "lon": -99.13427352905272,
    "language": "spanish"
  },
  {
    "name": "88.9 Radar (León) - 88.9 FM - XHXV-FM - Grupo Radar - León, Guanajuato",
    "url": "https://radios.radiohd.com.mx/8382/leon",
    "codec": "MP3",
    "bitrate": 128,
    "needsResolve": false,
    "lat": null,
    "lon": null,
    "language": "spanish"
  },
  {
    "name": "89.1 Kiss FM (Torreón) - 89.1 FM - XHETB-FM - Grupo Horizonte Lagunero / Multimundo Radio - Torreón, Coahuila",
    "url": "https://cento02.mipanelradio.com/proxy/adomin02",
    "codec": "MP3",
    "bitrate": 96,
    "needsResolve": false,
    "lat": 25.544537229284064,
    "lon": -103.40761184692384,
    "language": "spanish"
  },
  {
    "name": "89.5 Romántica (Culiacán) - 89.5 FM - XHCSI-FM - TM Medios / Radiorama Sinaloa - Culiacán, Sinaloa",
    "url": "https://stream-284.surfernetwork.com/3195h8s3ekhvv?zt=eyJhbGciOiJIUzI1NiJ9.eyJzdHJlYW0iOiIzMTk1aDhzM2VraHZ2IiwiaG9zdCI6InN0cmVhbS0yODQuc3VyZmVybmV0d29yay5jb20iLCJ0bSI6ZmFsc2UsInJ0dGwiOjUsImp0aSI6Im9ZZHJkTTh5U0FpRTlwNUV3bW1FN3ciLCJpYXQiOjE3ODIzNDUwMDgsImV4cCI6MTc4MjM0NTA2OH0.F6NUELpIvIE3ONOYWp0fM4Tp0SKJHU8LvrLTTPXgh4U",
    "codec": "MP3",
    "bitrate": 0,
    "needsResolve": false,
    "lat": 24.800255967268946,
    "lon": -107.39264488220216,
    "language": "spanish"
  },
  {
    "name": "90S DANCE by Mix: Dance de los 90",
    "url": "https://playerservices.streamtheworld.com/api/livestream-redirect/ACIR11_s01AAC.aac",
    "codec": "AAC+",
    "bitrate": 48,
    "needsResolve": false,
    "lat": 19.433857594870233,
    "lon": -99.13212776184083,
    "language": "spanish"
  },
  {
    "name": "91 DAT 90.9 (Querétaro) - 90.9 FM - XHQRT-FM - Respuesta Radiofónica - Querétaro, Querétaro",
    "url": "https://secure.radiorama.mx:2122/",
    "codec": "AAC+",
    "bitrate": 64,
    "needsResolve": false,
    "lat": null,
    "lon": null,
    "language": "spanish"
  },
  {
    "name": "91.5 FM (Morelia) - XHMRL-FM - Grupo Marmor - Morelia, Michoacán",
    "url": "https://sp04.servidorrprivado.com/2358/stream",
    "codec": "MP3",
    "bitrate": 128,
    "needsResolve": false,
    "lat": 19.703973262987247,
    "lon": -101.19343757629396,
    "language": "spanish"
  },
  {
    "name": "91.7 Catedral de la Música (Zamora) - 91.7 FM - XHQL-FM - Cadena RASA - Zamora, Michoacán",
    "url": "https://stream-285.zeno.fm/1parq976sk8uv?zt=eyJhbGciOiJIUzI1NiJ9.eyJzdHJlYW0iOiIxcGFycTk3NnNrOHV2IiwiaG9zdCI6InN0cmVhbS0yODUuemVuby5mbSIsInRtIjpmYWxzZSwicnR0bCI6NSwianRpIjoiTjctRFZadGlRTTZSYzA4NlZkTGoyQSIsImlhdCI6MTc4MDMxMjA0MiwiZXhwIjoxNzgwMzEyMTAyfQ.KK6L7xG8_VOteLArcvg3aIALWfcm9oXhAub_jQ28XqI",
    "codec": "MP3",
    "bitrate": 0,
    "needsResolve": false,
    "lat": 19.98428145683013,
    "lon": -102.28365898132326,
    "language": "spanish"
  },
  {
    "name": "91.9 Altamix (Ciudad Altamirano) - 91.9 FM - XHSCBP-FM - Altamiradio Comunicaciones, A.C. - Ciudad Altamirano, Guerrero",
    "url": "http://sp2.servidorrprivado.com:9366/stream",
    "codec": "MP3",
    "bitrate": 64,
    "needsResolve": false,
    "lat": 18.359312754948338,
    "lon": -100.66836833953856,
    "language": "spanish"
  },
  {
    "name": "91Dat (FM 90.9)",
    "url": "http://stream.radiorama.mx/xhqrt.mp3",
    "codec": "AAC+",
    "bitrate": 64,
    "needsResolve": false,
    "lat": null,
    "lon": null,
    "language": "spanish"
  },
  {
    "name": "92.3FM Fiesta Méxicana",
    "url": "https://strcdn.klm99.com:8130/stream/1/",
    "codec": "AAC+",
    "bitrate": 128,
    "needsResolve": false,
    "lat": 20.67451557140609,
    "lon": -103.33911895751956,
    "language": ""
  },
  {
    "name": "93.1 Mix (Cancún) - 93.1 FM - XHYI-FM - Grupo ACIR - Cancún, Quintana Roo",
    "url": "https://29313.live.streamtheworld.com:443/XHYIFMAAC.aac",
    "codec": "AAC+",
    "bitrate": 48,
    "needsResolve": false,
    "lat": 21.15552295614177,
    "lon": -86.84297561645509,
    "language": "spanish"
  },
  {
    "name": "94.1 Candela (San Luis Potosí) - 94.1 FM - XHRASA-FM - Cadena RASA - San Luis Potosí, San Luis Potosí",
    "url": "https://stream-284.zeno.fm/q8mt825e0chvv?zt=eyJhbGciOiJIUzI1NiJ9.eyJzdHJlYW0iOiJxOG10ODI1ZTBjaHZ2IiwiaG9zdCI6InN0cmVhbS0yODQuemVuby5mbSIsInRtIjpmYWxzZSwicnR0bCI6NSwianRpIjoiY2VEUmVveG9UNGVjWF9ETUlneUJ6dyIsImlhdCI6MTc3ODczMzk0MywiZXhwIjoxNzc4NzM0MDAzfQ.h2F_gNvf3UPLy3tL5DKe731OYV1PIUzlaqgG2qwGlsk",
    "codec": "MP3",
    "bitrate": 0,
    "needsResolve": false,
    "lat": 22.153348210701967,
    "lon": -100.9764575958252,
    "language": "spanish"
  },
  {
    "name": "94.1 Uam Radio (CDMX) - 94.1 FM - XHUAM-FM - UAM (Universidad Autónoma Metropolitana) - Ciudad de México",
    "url": "https://stream5.mexiserver.com:1124/stream",
    "codec": "MP3",
    "bitrate": 128,
    "needsResolve": false,
    "lat": 19.437704756662285,
    "lon": -99.13290023803712,
    "language": "spanish"
  },
  {
    "name": "94.3 La KeBuena (Apatzingán) - 94.3 FM - XHCJ-FM - Cadena RASA - Apatzingán, Michoacán",
    "url": "https://stream-282.zeno.fm/s1ay1szrzv8uv?zt=eyJhbGciOiJIUzI1NiJ9.eyJzdHJlYW0iOiJzMWF5MXN6cnp2OHV2IiwiaG9zdCI6InN0cmVhbS0yODIuemVuby5mbSIsInRtIjpmYWxzZSwicnR0bCI6NSwianRpIjoiaGVrUDROaWhSWXlEaWJWVFBlTkdrZyIsImlhdCI6MTc4MDc3Mjk1MSwiZXhwIjoxNzgwNzczMDExfQ.UQpV7GPaGbl8z6nsfGoIpNV0WaXnyxvoURpkcWCgTws",
    "codec": "MP3",
    "bitrate": 0,
    "needsResolve": false,
    "lat": 19.09241752495043,
    "lon": -102.35301017761232,
    "language": "spanish"
  },
  {
    "name": "94.5 Exa FM (Ciudad Victoria) - 94.5 FM - XHBJ-FM - ORT Radio - Ciudad Victoria, Tamaulipas",
    "url": "https://cast1.my-control-panel.com/proxy/exavictoria/stream/",
    "codec": "MP3",
    "bitrate": 64,
    "needsResolve": false,
    "lat": 23.739903660032216,
    "lon": -99.1439723968506,
    "language": "spanish"
  },
  {
    "name": "95.1 Amor Es (Ciudad Guzmán) - 95.1 FM - XHBC-FM - Grupo Radiofónico ZER - Ciudad Guzmán, Jalisco",
    "url": "https://cast.zuperdns.net/9510/stream",
    "codec": "MP3",
    "bitrate": 80,
    "needsResolve": false,
    "lat": 19.70138748022195,
    "lon": -103.4645175933838,
    "language": "spanish"
  },
  {
    "name": "95.1 Candela (Apatzingán) - 95.1 FM - XHAPM-FM - Cadena RASA - Apatzingán, Michoacán",
    "url": "https://stream-282.zeno.fm/kvdvkhbtvchvv?zt=eyJhbGciOiJIUzI1NiJ9.eyJzdHJlYW0iOiJrdmR2a2hidHZjaHZ2IiwiaG9zdCI6InN0cmVhbS0yODIuemVuby5mbSIsInRtIjpmYWxzZSwicnR0bCI6NSwianRpIjoiRU5OM3pXazZRMWk3U0lvTWFjU1lZdyIsImlhdCI6MTc4MDcxMzM0OSwiZXhwIjoxNzgwNzEzNDA5fQ.hwmMoqFAvCHGzuJR4MsIrNDxrQ37RwhFKmRyeMDcu-Y",
    "codec": "MP3",
    "bitrate": 0,
    "needsResolve": false,
    "lat": 19.09306639833293,
    "lon": -102.35386848449708,
    "language": "spanish"
  },
  {
    "name": "95.1 Caxcán FM (Jalpa) - 95.1 FM - XHJRS-FM - Grupo Radiofónico ZER - Jalpa, Zacatecas",
    "url": "https://cast.zuperdns.net/8008/stream",
    "codec": "MP3",
    "bitrate": 64,
    "needsResolve": false,
    "lat": 21.633635589521013,
    "lon": -102.97832965850831,
    "language": "spanish"
  },
  {
    "name": "95.3 Amor (CDMX) - 95.3 FM - XHSH-FM - Grupo ACIR - Ciudad de México",
    "url": "https://16613.live.streamtheworld.com:443/XHSHFMAAC.aac",
    "codec": "AAC+",
    "bitrate": 48,
    "needsResolve": false,
    "lat": 19.433795624720027,
    "lon": -99.13397312164308,
    "language": "spanish"
  },
  {
    "name": "95.3 Amor (San Luis Potosí) - 95.3 FM - XHNB-FM - Grupo ACIR - San Luis Potosí, San Luis Potosí",
    "url": "https://14103.live.streamtheworld.com:443/XHNBFMAAC.aac",
    "codec": "AAC+",
    "bitrate": 48,
    "needsResolve": false,
    "lat": 22.15303023238651,
    "lon": -100.97697257995608,
    "language": "spanish"
  },
  {
    "name": "95.5 Sensación (Xalapa) - 95.5 FM - XHTP-FM - Oliva Radio - Xalapa, Veracruz",
    "url": "http://sss.cnwks.ws:8322/stream",
    "codec": "MP3",
    "bitrate": 96,
    "needsResolve": false,
    "lat": 19.542281707799617,
    "lon": -96.91494941711429,
    "language": "spanish"
  },
  {
    "name": "96.9 VOX FM Radio Hits (San Luis Potosí) - 96.9 FM - XHOD-FM - Global Media - San Luis Potosí, San Luis Potosí",
    "url": "https://playradio.mx/proxy/vox?mp=/stream",
    "codec": "MP3",
    "bitrate": 128,
    "needsResolve": false,
    "lat": 22.153348210701967,
    "lon": -100.9757709503174,
    "language": "spanish"
  },
  {
    "name": "98.1 Alternativa 98 (Aguascalientes) - 98.1 FM - XHNM-FM - Radio y Televisión de Aguascalientes - Aguascalientes, Aguascalientes",
    "url": "https://streamingcwsradio30.com/8016/stream",
    "codec": "MP3",
    "bitrate": 160,
    "needsResolve": false,
    "lat": 21.882808233443804,
    "lon": -102.29825019836429,
    "language": "spanish"
  },
  {
    "name": "98.5 La Comadre (Culiacán) - 98.5 FM - XHCLI-FM - Grupo ACIR - Culiacán, Sinaloa",
    "url": "https://14993.live.streamtheworld.com:443/XHCLIFMAAC.aac",
    "codec": "AAC+",
    "bitrate": 48,
    "needsResolve": false,
    "lat": 24.800063614450828,
    "lon": -107.39152908325195,
    "language": "spanish"
  },
  {
    "name": "99.3 Amor Es (Zacatecas) - 99.3 FM - XHZAZ-FM - Grupo Radiofónico ZER - Zacatecas, Zacatecas",
    "url": "https://cast.zuperdns.net/8002/stream",
    "codec": "MP3",
    "bitrate": 128,
    "needsResolve": false,
    "lat": 22.775846404837573,
    "lon": -102.57277965545656,
    "language": "spanish"
  },
  {
    "name": "99.3 Arroba FM (León) - 99.3 FM - XHSD-FM - Radiorama Bajío - León, Guanajuato",
    "url": "https://stream-285.zeno.fm/883nc8g9d78uv?zt=eyJhbGciOiJIUzI1NiJ9.eyJzdHJlYW0iOiI4ODNuYzhnOWQ3OHV2IiwiaG9zdCI6InN0cmVhbS0yODUuemVuby5mbSIsInRtIjpmYWxzZSwicnR0bCI6NSwianRpIjoiMkZFQmFBNGxTUEM1TTZqLXB4QkNnZyIsImlhdCI6MTc3OTEzNTk2MiwiZXhwIjoxNzc5MTM2MDIyfQ.kM_ZZhx02Zoj-b1F8_x2MWNOstd4RCvj7LdCflSeMJc",
    "codec": "MP3",
    "bitrate": 0,
    "needsResolve": false,
    "lat": 21.122898091480646,
    "lon": -101.68267250061037,
    "language": "spanish"
  },
  {
    "name": "99.7 Globo (Ciudad Acuña) - 99.7 FM - XHPL-FM - RCG Media - Ciudad Acuña, Coahuila",
    "url": "http://radio.rcg.com.mx:8016/stream",
    "codec": "MP3",
    "bitrate": 64,
    "needsResolve": false,
    "lat": 29.322589760737703,
    "lon": -100.95860481262208,
    "language": "spanish"
  },
  {
    "name": "99.9 La Magnífica (Atlixco) - 99.9 FM - XHEV-FM - Tribuna Comunicación - Atlixco, Puebla",
    "url": "https://stream-290.zeno.fm/u2vpn3hh5pkvv?zt=eyJhbGciOiJIUzI1NiJ9.eyJzdHJlYW0iOiJ1MnZwbjNoaDVwa3Z2IiwiaG9zdCI6InN0cmVhbS0yOTAuemVuby5mbSIsInRtIjpmYWxzZSwicnR0bCI6NSwianRpIjoiVXIzT0lqVmtTSXFYX19WTW0wY3R1ZyIsImlhdCI6MTc3NzU1Mzg1MCwiZXhwIjoxNzc3NTUzOTEwfQ.xNA1bUJvPytTbMC_rMW6PjxkBFNmEBPNuxruqjS5Ak4",
    "codec": "AAC",
    "bitrate": 0,
    "needsResolve": false,
    "lat": 18.90917161232419,
    "lon": -98.43707084655762,
    "language": "spanish"
  },
  {
    "name": "99.9 Stereo 100 (Morelia) - 99.9 FM - XHSCHP-FM - FH Comunicadores de Michoacán - Morelia, Michoacán",
    "url": "http://154.38.167.185:8040/stream",
    "codec": "MP3",
    "bitrate": 128,
    "needsResolve": false,
    "lat": 19.704905043603866,
    "lon": -101.1921501159668,
    "language": "spanish"
  },
  {
    "name": "@FM (León) - 1530 AM - XESD-AM - Radiorama - León, Guanajuato",
    "url": "https://stream-152.zeno.fm/883nc8g9d78uv?zt=eyJhbGciOiJIUzI1NiJ9.eyJzdHJlYW0iOiI4ODNuYzhnOWQ3OHV2IiwiaG9zdCI6InN0cmVhbS0xNTIuemVuby5mbSIsInRtIjpmYWxzZSwicnR0bCI6NSwianRpIjoiZm1pN0Y5Qy1Td09WODEtMUo3dGkwQSIsImlhdCI6MTc3MjcyNzk0MCwiZXhwIjoxNzcyNzI4MDAwfQ.ES5jUR5FP_OGYM6t6rKQVIVHzxq4plNkGowRDaS5ZpQ",
    "codec": "MP3",
    "bitrate": 0,
    "needsResolve": false,
    "lat": 21.122417708567394,
    "lon": -101.6831874847412,
    "language": "spanish"
  },
  {
    "name": "@FM (León) - 99.3 FM - XHSD-FM - Radiorama Bajío - León, Guanajuato",
    "url": "https://stream-154.zeno.fm/883nc8g9d78uv?zt=eyJhbGciOiJIUzI1NiJ9.eyJzdHJlYW0iOiI4ODNuYzhnOWQ3OHV2IiwiaG9zdCI6InN0cmVhbS0xNTQuemVuby5mbSIsInRtIjpmYWxzZSwicnR0bCI6NSwianRpIjoiMGJJSjFPUS1SRXltMGo5ZzZra2lRQSIsImlhdCI6MTc2ODQ1MDM3NSwiZXhwIjoxNzY4NDUwNDM1fQ.9MRLxUGQBS9u3AzUZdTqoREawubAlAJgb_y3GpTB5Ew",
    "codec": "MP3",
    "bitrate": 0,
    "needsResolve": false,
    "lat": 21.123501069914237,
    "lon": -101.68275833129884,
    "language": "spanish"
  },
  {
    "name": "ABC DEPORTES 660 (MTY) - 660 AM - XEFZ-AM - Grupo Radio Alegría - Monterrey, Nuevo León",
    "url": "https://playerservices.streamtheworld.com/api/livestream-redirect/ABC_NOTICIAS_660AMAAC.aac",
    "codec": "AAC+",
    "bitrate": 48,
    "needsResolve": false,
    "lat": 25.680791667045295,
    "lon": -100.31659126281738,
    "language": "spanish"
  },
  {
    "name": "ABC Deportes (Monterrey) - 92.1 FM / 660 AM - XHGBO-FM / XEFZ-AM - Grupo Radio Alegría - General Bravo / Monterrey, NL",
    "url": "https://playerservices.streamtheworld.com/api/livestream-redirect/ABC_NOTICIAS_660AM.mp3",
    "codec": "MP3",
    "bitrate": 128,
    "needsResolve": false,
    "lat": 25.679280865765566,
    "lon": -100.30646324157716,
    "language": "spanish"
  },
  {
    "name": "ABC NOTICIAS 1310 (MTY) - 1310 AM - XEVB-AM - Grupo Radio Alegría - Monterrey, Nuevo León",
    "url": "https://playerservices.streamtheworld.com/api/livestream-redirect/REGIONAL_MEXICANA_570AMAAC.aac",
    "codec": "AAC+",
    "bitrate": 48,
    "needsResolve": false,
    "lat": 25.68171989385142,
    "lon": -100.31538963317873,
    "language": "spanish"
  },
  {
    "name": "ABC Noticias (Monterrey) - 570 AM - XEBJB-AM - Grupo Radio Alegría - Monterrey, NL",
    "url": "https://playerservices.streamtheworld.com/api/livestream-redirect/REGIONAL_MEXICANA_570AM.mp3",
    "codec": "MP3",
    "bitrate": 128,
    "needsResolve": false,
    "lat": 25.68218400454276,
    "lon": -100.31762123107912,
    "language": "spanish"
  },
  {
    "name": "ACUSTIK RADIO 1150 (CDMX) - 1150 AM - XEJP-AM - Grupo Acustik - Ciudad de México",
    "url": "https://server2.sit-mexico.com:2199/proxy/acustik?mp=/stream&1769272990469",
    "codec": "MP3",
    "bitrate": 128,
    "needsResolve": false,
    "lat": 19.434019475967336,
    "lon": -99.13023948669436,
    "language": "spanish"
  },
  {
    "name": "ACUSTIK RADIO: Arre en Acustik, El Poder del Regional Mexicano",
    "url": "https://server2.sit-mexico.com:2199/proxy/acustik",
    "codec": "MP3",
    "bitrate": 128,
    "needsResolve": false,
    "lat": 19.43369571361176,
    "lon": -99.13315773010255,
    "language": "spanish"
  },
  {
    "name": "ADICTIVO RADIO 90.3 (Torreón) - 90.3 FM - XHBP-FM - GPS Media - Torreón, Coahuila",
    "url": "http://s22.myradiostream.com:9504/",
    "codec": "MP3",
    "bitrate": 128,
    "needsResolve": false,
    "lat": 25.544728411032835,
    "lon": -103.40975761413576,
    "language": "spanish"
  },
  {
    "name": "ADN 92.1 (Saltillo) - 92.1 FM - XHPEFQ-FM - Alas Para Las Palabras, A.C. - Saltillo, Coahuila",
    "url": "https://streamingcwsradio30.com/8322/stream",
    "codec": "MP3",
    "bitrate": 128,
    "needsResolve": false,
    "lat": 25.424288975314095,
    "lon": -100.993709564209,
    "language": "spanish"
  },
  {
    "name": "ALEGRÍA MEXICANA 90.1 (La Paz) - 90.1 FM - XHW-FM - Promomedios California - La Paz, Baja CAlifornia",
    "url": "https://stream.zeno.fm/mkifybkafybtv",
    "codec": "AAC",
    "bitrate": 0,
    "needsResolve": false,
    "lat": 24.16265657394661,
    "lon": -110.31492233276369,
    "language": "spanish"
  },
  {
    "name": "ALEGRÍA MEXICANA 90.1 (La Paz) - 90.1 FM - XHW-FM - Promomedios California - La Paz, Baja California",
    "url": "https://stream.zeno.fm/zc6eqtg84c9uv",
    "codec": "AAC",
    "bitrate": 0,
    "needsResolve": false,
    "lat": 24.16203008590901,
    "lon": -110.31286239624023,
    "language": "spanish"
  },
  {
    "name": "ALFA: Donde Todo Nace",
    "url": "https://playerservices.streamtheworld.com/api/livestream-redirect/XHFAJ_FMAAC.aac",
    "codec": "AAC+",
    "bitrate": 32,
    "needsResolve": false,
    "lat": 19.435362576971084,
    "lon": -99.1341018676758,
    "language": "spanish"
  },
  {
    "name": "ALTAMIX 91.9 (Ciudad Altamirano) - 91.9 FM - XHSCBP-FM - Altamiradio Comunicaciones, A.C. - Ciudad Altamirano, Guerrero",
    "url": "http://sp2.servidorrprivado.com:9366/;",
    "codec": "AAC+",
    "bitrate": 48,
    "needsResolve": false,
    "lat": 18.35939421682893,
    "lon": -100.6697416305542,
    "language": "spanish"
  },
  {
    "name": "ALTERNATIVA 98 98.1 (Aguascalientes) - 98.1 FM - XHNM-FM - Radio y Televisión de Aguascalientes - Aguascalientes, Aguascalientes",
    "url": "https://streamingcwsradio30.com/8016/stream/1/;",
    "codec": "MP3",
    "bitrate": 160,
    "needsResolve": false,
    "lat": 21.881740469539572,
    "lon": -102.29404449462892,
    "language": "spanish"
  },
  {
    "name": "ALTERNATIVA by MIX (iHeart Radio) - Online - ACIR Online / iHeart Radio - Ciudad de México",
    "url": "https://playerservices.streamtheworld.com/api/livestream-redirect/ACIR12_s01AAC.aac",
    "codec": "AAC+",
    "bitrate": 48,
    "needsResolve": false,
    "lat": 19.434790938353725,
    "lon": -99.137020111084,
    "language": "spanish"
  },
  {
    "name": "AMOR  91.7 (Xalapa) - 91.7 FM - XHOZ-FM - Quatro Media - Xalapa, Veracruz",
    "url": "https://streaming.servicioswebmx.com/8126/stream",
    "codec": "MP3",
    "bitrate": 128,
    "needsResolve": false,
    "lat": 19.54179638865155,
    "lon": -96.91426277160646,
    "language": "spanish"
  },
  {
    "name": "AMOR 100.1 (Mérida) - 100.1 FM - XHYU-FM - Grupo SIPSE Radio - Mérida, Yucatán",
    "url": "https://webprod.sipse.com.mx:8080/amor",
    "codec": "MP3",
    "bitrate": 96,
    "needsResolve": false,
    "lat": 20.969699900317423,
    "lon": -89.62354660034181,
    "language": "spanish"
  },
  {
    "name": "AMOR 101 101.3 (Guaymas) - 101.3 FM - XHFX-FM - Grupo ASVA - Guaymas, Sonora",
    "url": "https://sp3.servidorrprivado.com/4474/stream",
    "codec": "AAC+",
    "bitrate": 128,
    "needsResolve": false,
    "lat": 27.922646641807205,
    "lon": -110.9000301361084,
    "language": "spanish"
  },
  {
    "name": "AMOR 103.1 (León) - 103.1 FM - XHXF-FM - Grupo ACIR - León, Guanajuato",
    "url": "https://14993.live.streamtheworld.com:443/XHXFAAC.aac",
    "codec": "AAC+",
    "bitrate": 48,
    "needsResolve": false,
    "lat": 21.122898091480646,
    "lon": -101.68301582336429,
    "language": "spanish"
  },
  {
    "name": "AMOR 103.3 (Puebla) - 103.3 FM - XHRH-FM - Grupo ACIR - Puebla, Puebla",
    "url": "https://playerservices.streamtheworld.com/api/livestream-redirect/XHRHFMAAC.aac",
    "codec": "AAC+",
    "bitrate": 48,
    "needsResolve": false,
    "lat": 19.045205167581692,
    "lon": -98.19897651672365,
    "language": "spanish"
  },
  {
    "name": "AMOR 90.9 (MTY) - 90.9 FM - XHOK-FM - Grupo ACIR - Monterrey, Nuevo León",
    "url": "https://playerservices.streamtheworld.com/api/livestream-redirect/XHOKFMAAC.aac",
    "codec": "AAC+",
    "bitrate": 48,
    "needsResolve": false,
    "lat": 25.68141048571951,
    "lon": -100.31487464904784,
    "language": "spanish"
  },
  {
    "name": "AMOR 92.5 (Toluca) - 92.5 FM - XHRJ-FM - Grupo ACIR - Toluca, Estado de México",
    "url": "https://playerservices.streamtheworld.com/api/livestream-redirect/XHRJFMAAC.aac",
    "codec": "AAC+",
    "bitrate": 48,
    "needsResolve": false,
    "lat": 19.29312204504051,
    "lon": -99.65672492980956,
    "language": "spanish"
  },
  {
    "name": "AMOR 93.1 (GDL) - 93.1 FM - XHPI-FM - Grupo ACIR - Guadalajara, Jalisco",
    "url": "https://playerservices.streamtheworld.com/api/livestream-redirect/XHPIFMAAC.aac",
    "codec": "AAC+",
    "bitrate": 48,
    "needsResolve": false,
    "lat": 20.67274336730612,
    "lon": -103.33868980407716,
    "language": "spanish"
  },
  {
    "name": "AMOR 95.3 (CDMX) - 95.3 FM - XHSH-FM - Grupo ACIR - Ciudad de México",
    "url": "https://18393.live.streamtheworld.com:443/XHSHFMAAC.aac",
    "codec": "AAC+",
    "bitrate": 48,
    "needsResolve": false,
    "lat": 19.43543845805219,
    "lon": -99.1373634338379,
    "language": "spanish"
  },
  {
    "name": "AMOR 95.3 (San Luis Potosí) - 95.3 FM - XHNB-FM - Grupo ACIR - San Luis Potosí, San Luis Potosí",
    "url": "https://27283.live.streamtheworld.com:443/XHNBFMAAC.aac",
    "codec": "AAC+",
    "bitrate": 48,
    "needsResolve": false,
    "lat": 22.15426487854331,
    "lon": -100.97723007202148,
    "language": "spanish"
  },
  {
    "name": "AMOR 95.3 (San Luis Potosí) - 95.3 FM - XHNB-FM - Grupo ACIR - San Luis Potosí, San Luis Potosí",
    "url": "https://16603.live.streamtheworld.com:443/XHNBFMAAC.aac",
    "codec": "AAC+",
    "bitrate": 48,
    "needsResolve": false,
    "lat": 22.152712253352576,
    "lon": -100.9757709503174,
    "language": "spanish"
  },
  {
    "name": "AMOR EN CONCIERTO: Éxitos en vivo en español",
    "url": "https://playerservices.streamtheworld.com/api/livestream-redirect/ACIR39_s01AAC.aac",
    "codec": "AAC+",
    "bitrate": 48,
    "needsResolve": false,
    "lat": 19.43543845805219,
    "lon": -99.13324356079102,
    "language": "spanish"
  },
  {
    "name": "AMOR ES 104.5 (Aguascalientes) - 104.5 FM - XHDC-FM - Grupo Radiofónico ZER - Aguascalientes, Aguascalientes",
    "url": "https://cast.zuperdns.net/8026/stream/",
    "codec": "MP3",
    "bitrate": 80,
    "needsResolve": false,
    "lat": 21.88169317911191,
    "lon": -102.29790687561037,
    "language": "spanish"
  },
  {
    "name": "AMOR ES 95.1 (Ciudad Guzmán) - 95.1 FM - XHBC-FM - Grupo Radiofónico ZER - Ciudad Guzmán, Jalisco",
    "url": "https://cast.zuperdns.net/9510/stream/",
    "codec": "MP3",
    "bitrate": 40,
    "needsResolve": false,
    "lat": 19.701244806421247,
    "lon": -103.46421718597414,
    "language": "spanish"
  },
  {
    "name": "AMOR ES 99.3 (Zacatecas) - 99.3 FM - XHZAZ-FM - Grupo Radiofónico ZER - Zacatecas, Zacatecas",
    "url": "https://cast.zuperdns.net/8002/stream/",
    "codec": "MP3",
    "bitrate": 64,
    "needsResolve": false,
    "lat": 22.77646096075339,
    "lon": -102.57290840148929,
    "language": "spanish"
  },
  {
    "name": "AMOR MÍO 92.9 (Ensenada) - 92.9 FM - XHFZO-FM - Grupo Uzivra - Ensenada, Baja California",
    "url": "https://sudominiohoy.com:18303/stream",
    "codec": "MP3",
    "bitrate": 96,
    "needsResolve": false,
    "lat": 31.866478368426876,
    "lon": -116.60116195678712,
    "language": "spanish"
  },
  {
    "name": "AMOR SOLO POP: Pop y baladas en español",
    "url": "https://playerservices.streamtheworld.com/api/livestream-redirect/ACIR03_s01AAC.aac",
    "codec": "AAC+",
    "bitrate": 48,
    "needsResolve": false,
    "lat": 19.43252459907613,
    "lon": -99.12878036499023,
    "language": "spanish"
  },
  {
    "name": "AMOR: Sólo Música Romántica",
    "url": "https://22973.live.streamtheworld.com:443/XHSHFMAAC.aac",
    "codec": "AAC+",
    "bitrate": 48,
    "needsResolve": false,
    "lat": 19.433533832191916,
    "lon": -99.1326427459717,
    "language": "spanish"
  },
  {
    "name": "ANTENA 102.5 (Chihuahua) - 102.5 FM - XHES-FM - GRD Multimedia - Chihuahua, Chihuahua",
    "url": "https://streamingcwsradio30.com:7093/;",
    "codec": "MP3",
    "bitrate": 128,
    "needsResolve": false,
    "lat": 28.63753277794977,
    "lon": -106.07720375061037,
    "language": "spanish"
  },
  {
    "name": "ARANDAS FM 107.3 (Arandas) - 107.3 FM - XHARDJ-FM - Grupo Radiofónico ZER - Arandas, Jalisco",
    "url": "https://live.zuperdns.net/1073/stream",
    "codec": "MP3",
    "bitrate": 40,
    "needsResolve": false,
    "lat": 20.707430829533493,
    "lon": -102.34665870666504,
    "language": "spanish"
  },
  {
    "name": "ARROBA FM 101.1 (Hermosillo) - 101.1 FM - XHVSS-FM - Radiorama Sonora - Hermosillo, Sonora",
    "url": "https://stream.freepi.io/8402/live",
    "codec": "MP3",
    "bitrate": 128,
    "needsResolve": false,
    "lat": 29.096041919083248,
    "lon": -110.96800804138184,
    "language": "spanish"
  },
  {
    "name": "ARROBA FM 101.7 (Piedras Negras) - 101.7 FM - XHCPN-FM - Radiorama Piedras Negras - Piedras Negras, Coahuila",
    "url": "https://stream.zeno.fm/p7xefup9d78uv",
    "codec": "MP3",
    "bitrate": 0,
    "needsResolve": false,
    "lat": 28.706212103016057,
    "lon": -100.51880836486818,
    "language": "spanish"
  },
  {
    "name": "ARROBA FM 88.5 (Chihuahua) - 88.5 FM - XHDI-FM - Radiorama Chihuahua - Chihuahua, Chihuahua",
    "url": "https://stream.zeno.fm/hv5u0bg9d78uv",
    "codec": "MP3",
    "bitrate": 0,
    "needsResolve": false,
    "lat": 28.63843674548642,
    "lon": -106.07737541198732,
    "language": "spanish"
  },
  {
    "name": "ARROBA FM 88.7 (GDL) - 88.7 FM - XHGDL-FM - Radiorama de Occidente - Guadalajara, Jalisco",
    "url": "https://stream.zeno.fm/es06s1g9d78uv",
    "codec": "MP3",
    "bitrate": 0,
    "needsResolve": false,
    "lat": 20.674349443390476,
    "lon": -103.33989143371583,
    "language": "spanish"
  },
  {
    "name": "ARROBA FM 89.3 (Poza Rica) - 89.3 FM - XHRRR-FM - Radiorama Poza Rica - Poza Rica, Veracruz",
    "url": "https://stream.zeno.fm/dctbwwp9d78uv",
    "codec": "MP3",
    "bitrate": 0,
    "needsResolve": false,
    "lat": 20.532789082779132,
    "lon": -97.454309463501,
    "language": "spanish"
  },
  {
    "name": "ARROBA FM 93.3 (Cuernavaca) - 93.3 FM - XHTB-FM - Radiorama Morelos - Cuernavaca, Morelos",
    "url": "https://stream.zeno.fm/yt2efgg9d78uv",
    "codec": "MP3",
    "bitrate": 0,
    "needsResolve": false,
    "lat": 18.923461973971936,
    "lon": -99.23426628112794,
    "language": "spanish"
  },
  {
    "name": "ARROBA FM 93.5 (Tampico) - 93.5 FM - XHPP-FM - Radiorama Tamaulipas - Tampico, Tamaulipas",
    "url": "https://stream.zeno.fm/y57qb0p9d78uv",
    "codec": "MP3",
    "bitrate": 0,
    "needsResolve": false,
    "lat": 22.216929421339323,
    "lon": -97.85599708557127,
    "language": "spanish"
  },
  {
    "name": "ARROBA FM 95.3 (Reynosa) - 95.3 FM - XHRT-FM - Radiorama Tamaulipas - Reynosa, Tamaulipas",
    "url": "https://stream.zeno.fm/b04err5zfkhvv",
    "codec": "MP3",
    "bitrate": 0,
    "needsResolve": false,
    "lat": 26.090941029106716,
    "lon": -98.2814598083496,
    "language": "spanish"
  },
  {
    "name": "ARROBA FM 96.1 (Puebla) - 96.1 FM - XHEZAR-FM - Radiorama Puebla - Puebla, Puebla",
    "url": "https://stream.zeno.fm/pfyc6yp9d78uv",
    "codec": "MP3",
    "bitrate": 0,
    "needsResolve": false,
    "lat": 19.045167136747004,
    "lon": -98.19906234741212,
    "language": "spanish"
  },
  {
    "name": "ARROBA FM 98.5 (Tepic) - 98.5 FM - XHEPIC-FM - Radiorama Nayarit - Tepic, Nayarit",
    "url": "https://stream.zeno.fm/csvzw6ypu98uv",
    "codec": "MP3",
    "bitrate": 0,
    "needsResolve": false,
    "lat": 21.513251378976847,
    "lon": -104.89119529724124,
    "language": "spanish"
  },
  {
    "name": "ARROBA FM 99.3 (León) - 99.3 FM - XHSD-FM - Radiorama Bajío - León, Guanajuato",
    "url": "https://stream-153.zeno.fm/883nc8g9d78uv?zt=eyJhbGciOiJIUzI1NiJ9.eyJzdHJlYW0iOiI4ODNuYzhnOWQ3OHV2IiwiaG9zdCI6InN0cmVhbS0xNTMuemVuby5mbSIsInRtIjpmYWxzZSwicnR0bCI6NSwianRpIjoiQmVGM0NrNzFRcmFob2pYY3lWejVQUSIsImlhdCI6MTc2ODQzNTA3NSwiZXhwIjoxNzY4NDM1MTM1fQ.u9JJ7oswJl4_zoMKwm4EEgNjW0FTL3q2T5lI9Labodw",
    "codec": "MP3",
    "bitrate": 0,
    "needsResolve": false,
    "lat": 21.125460107405065,
    "lon": -101.6831874847412,
    "language": "spanish"
  },
  {
    "name": "ARROBA FM 99.5 (Celaya) - 99.5 FM - XHAF-FM - Radiorama Celaya - Celaya, Guanajuato",
    "url": "https://stream.zeno.fm/179rk7f9d78uv",
    "codec": "MP3",
    "bitrate": 0,
    "needsResolve": false,
    "lat": null,
    "lon": null,
    "language": "spanish"
  },
  {
    "name": "ARROBA FM 99.7 (Durango) - 99.7 FM - XHOH-FM - Radiorama Durango - Durango, Durango",
    "url": "https://stream.zeno.fm/pp1aypg9d78uv",
    "codec": "MP3",
    "bitrate": 0,
    "needsResolve": false,
    "lat": 24.024755278153265,
    "lon": -104.65456008911134,
    "language": "spanish"
  },
  {
    "name": "ARROBA FM: Te Conecta",
    "url": "https://stream.zeno.fm/6vtcayf9d78uv",
    "codec": "MP3",
    "bitrate": 0,
    "needsResolve": false,
    "lat": 19.433371950610702,
    "lon": -99.13315773010255,
    "language": "spanish"
  },
  {
    "name": "AZTLÁN RADIO 100.3 (Tepic) - 100.3 FM - XHTNY-FM - Sistema de Radio y Televisión de Nayarit - Tepic, Nayarit",
    "url": "https://stream-179.zeno.fm/0zqsdz9xoamuv?zt=eyJhbGciOiJIUzI1NiJ9.eyJzdHJlYW0iOiIwenFzZHo5eG9hbXV2IiwiaG9zdCI6InN0cmVhbS0xNzkuemVuby5mbSIsInRtIjpmYWxzZSwicnR0bCI6NSwianRpIjoibmRHeFZvdzZRZldGUUhhaVFxQl9adyIsImlhdCI6MTc2ODc1NzIzMiwiZXhwIjoxNzY4NzU3MjkyfQ.hdW52MqTASHW0HRgA_kHCIJFwpoQ0Ersijnbkl3Pgg4",
    "codec": "MP3",
    "bitrate": 0,
    "needsResolve": false,
    "lat": 21.5092962002293,
    "lon": -104.89093780517578,
    "language": "spanish"
  },
  {
    "name": "AZTLÁN RADIO 550 (Tepic) - 550 AM - XEGNAY-AM - Sistema de Radio y Televisión de Nayarit - Tepic, Nayarit",
    "url": "https://stream-176.zeno.fm/h1t89686h0hvv?zt=eyJhbGciOiJIUzI1NiJ9.eyJzdHJlYW0iOiJoMXQ4OTY4NmgwaHZ2IiwiaG9zdCI6InN0cmVhbS0xNzYuemVuby5mbSIsInRtIjpmYWxzZSwicnR0bCI6NSwianRpIjoibU1Cb1M3UXRUdy1LQWxnLWJKWXpTdyIsImlhdCI6MTc3MDc1NzU5MywiZXhwIjoxNzcwNzU3NjUzfQ.XRZ7AASkZ4NQCc0BtXjKVp_FEQwTb_feS5SZ3k-uKWk",
    "codec": "MP3",
    "bitrate": 0,
    "needsResolve": false,
    "lat": 21.512096028740206,
    "lon": -104.89076614379884,
    "language": "spanish"
  },
  {
    "name": "AZUL 89: El Color de la Música",
    "url": "https://playerservices.streamtheworld.com/api/livestream-redirect/ACIR24_s01AAC.aac",
    "codec": "AAC+",
    "bitrate": 48,
    "needsResolve": false,
    "lat": 19.434181356903075,
    "lon": -99.13281440734865,
    "language": "spanish"
  },
  {
    "name": "Adictiva Radio (Tijuana) - 98.9 FM - XHMORE-FM - Esquina 32 - Tijuana, Baja California",
    "url": "https://cast6.asurahosting.com/proxy/luisf/adictivafmtijuana",
    "codec": "MP3",
    "bitrate": 128,
    "needsResolve": false,
    "lat": 32.53245257995851,
    "lon": -117.01924324035646,
    "language": ""
  },
  {
    "name": "Adictivo radio - 90.3 FM",
    "url": "http://s22.myradiostream.com:9504/stream",
    "codec": "MP3",
    "bitrate": 128,
    "needsResolve": false,
    "lat": null,
    "lon": null,
    "language": "spanish"
  },
  {
    "name": "Aldo Radio",
    "url": "https://stream.zeno.fm/2tywf0qdtrutv",
    "codec": "MP3",
    "bitrate": 0,
    "needsResolve": false,
    "lat": null,
    "lon": null,
    "language": "español mexico"
  },
  {
    "name": "Alicia radio",
    "url": "http://giss.tv:8001/alicia_radio.mp3",
    "codec": "MP3",
    "bitrate": 128,
    "needsResolve": false,
    "lat": 19.453034407218155,
    "lon": -99.15769994258882,
    "language": "español - latinoamerica,español internacional,español mexico"
  },
  {
    "name": "Altermedia Network",
    "url": "http://cdn4.onstream.audio:9171/;",
    "codec": "MP3",
    "bitrate": 128,
    "needsResolve": false,
    "lat": null,
    "lon": null,
    "language": "spanish"
  },
  {
    "name": "Alternativa 98 (Aguascalientes) - 98.1 FM - XHNM-FM - Radio y Televisión de Aguascalientes - Aguascalientes, Aguascalientes",
    "url": "http://www.streamingcwsradio30.com:8016/stream",
    "codec": "MP3",
    "bitrate": 160,
    "needsResolve": false,
    "lat": 21.882648940501433,
    "lon": -102.29619026184083,
    "language": ""
  },
  {
    "name": "Alternativa 98.1 FM",
    "url": "http://www.streamingcwsradio30.com:8016/;",
    "codec": "MP3",
    "bitrate": 160,
    "needsResolve": false,
    "lat": null,
    "lon": null,
    "language": "spanish"
  },
  {
    "name": "Amor Ciudad de México - 95.3 FM - XHSH-FM - Grupo ACIR - Ciudad de México",
    "url": "https://27143.live.streamtheworld.com:443/XHSHFMAAC.aac",
    "codec": "AAC+",
    "bitrate": 48,
    "needsResolve": false,
    "lat": null,
    "lon": null,
    "language": "spanish"
  },
  {
    "name": "Amor Querétaro - 97.9 FM - XHQTO-FM - Grupo ACIR - Querétaro, QT",
    "url": "https://27163.live.streamtheworld.com:443/XHQTOAAC.aac",
    "codec": "AAC+",
    "bitrate": 48,
    "needsResolve": false,
    "lat": null,
    "lon": null,
    "language": "spanish"
  },
  {
    "name": "Amor de Divas (iHeart Radio) - Online - ACIR Online / iHeart Radio - Ciudad de México",
    "url": "https://playerservices.streamtheworld.com/api/livestream-redirect/ACIR01_s01AAC.aac",
    "codec": "AAC+",
    "bitrate": 48,
    "needsResolve": false,
    "lat": 19.43405741682612,
    "lon": -99.13195610046388,
    "language": "spanish"
  },
  {
    "name": "Amor de Dos (iHeart Radio) - Online - ACIR Online / iHeart Radio - Ciudad de México",
    "url": "https://playerservices.streamtheworld.com/api/livestream-redirect/ACIR02_s01AAC.aac",
    "codec": "AAC+",
    "bitrate": 48,
    "needsResolve": false,
    "lat": 19.43405741682612,
    "lon": -99.13247108459474,
    "language": "spanish"
  },
  {
    "name": "Amor de Mis Amores (iHeart Radio) - Online - ACIR Online / iHeart Radio - Ciudad de México",
    "url": "https://playerservices.streamtheworld.com/api/livestream-redirect/ACIR21_s01AAC.aac",
    "codec": "AAC+",
    "bitrate": 48,
    "needsResolve": false,
    "lat": 19.434143416073223,
    "lon": -99.13564682006836,
    "language": "spanish"
  },
  {
    "name": "Amor es 95.1 FM Ciudad Guzmán",
    "url": "https://cast.zuperdns.net/9510/stream/;stream.mp3?nochache=0.3735909454220301",
    "codec": "MP3",
    "bitrate": 40,
    "needsResolve": false,
    "lat": null,
    "lon": null,
    "language": "español mexico"
  },
  {
    "name": "Arandas FM 107.3",
    "url": "https://live.zuperdns.net/1073/;",
    "codec": "MP3",
    "bitrate": 40,
    "needsResolve": false,
    "lat": null,
    "lon": null,
    "language": "spanish"
  },
  {
    "name": "Arroba FM (León) - 1530 AM - XESD-AM - Radiorama - León, Guanajuato",
    "url": "https://stream-154.zeno.fm/883nc8g9d78uv?zt=eyJhbGciOiJIUzI1NiJ9.eyJzdHJlYW0iOiI4ODNuYzhnOWQ3OHV2IiwiaG9zdCI6InN0cmVhbS0xNTQuemVuby5mbSIsInRtIjpmYWxzZSwicnR0bCI6NSwianRpIjoiTTFzMmtXSXFTd1NoM0szS0IxMWxFUSIsImlhdCI6MTc2ODQ0ODkxNSwiZXhwIjoxNzY4NDQ4OTc1fQ.FxwYjOyAvMCgIlqi1X_UH1DQrZ3zLmHGgeolOhPpAY8",
    "codec": "MP3",
    "bitrate": 0,
    "needsResolve": false,
    "lat": 21.108768679455817,
    "lon": -101.63984298706056,
    "language": "spanish"
  },
  {
    "name": "Arroba FM (León) - 99.3 FM - XHSD-FM - Radiorama - León, Guanajuato",
    "url": "https://stream-152.zeno.fm/883nc8g9d78uv?zt=eyJhbGciOiJIUzI1NiJ9.eyJzdHJlYW0iOiI4ODNuYzhnOWQ3OHV2IiwiaG9zdCI6InN0cmVhbS0xNTIuemVuby5mbSIsInRtIjpmYWxzZSwicnR0bCI6NSwianRpIjoicGRVOHA1YUJSOUdTQ0JydkN4ZHlhZyIsImlhdCI6MTc2ODQ0MDA2NiwiZXhwIjoxNzY4NDQwMTI2fQ.7JmKuE54XMgYxQJY84Awfzf-8gYRzCZH3WVIPJHQoqs",
    "codec": "MP3",
    "bitrate": 0,
    "needsResolve": false,
    "lat": 21.12433923088438,
    "lon": -101.6825008392334,
    "language": "spanish"
  },
  {
    "name": "Asian World Radio Latina",
    "url": "http://stream.zeno.fm/37hmxgfgzs8uv",
    "codec": "MP3",
    "bitrate": 0,
    "needsResolve": false,
    "lat": 19.432827116743898,
    "lon": -99.13315773010255,
    "language": "español internacional,español mexico,spanish"
  },
  {
    "name": "BACK FM 100.9 (Piedras Negras) - 100.9 FM - XHVM-FM - Grupo Radio Zócalo - Piedras Negras, Coahuila",
    "url": "https://playerservices.streamtheworld.com/api/livestream-redirect/XHVMFMAAC.aac",
    "codec": "AAC+",
    "bitrate": 32,
    "needsResolve": false,
    "lat": 28.69299699706187,
    "lon": -100.53949356079104,
    "language": "spanish"
  },
  {
    "name": "BANDA 93.3 (MTY) - 93.3 FM - XHQQ-FM - Grupo Radio Centro - Monterrey, Nuevo León",
    "url": "https://playerservices.streamtheworld.com/api/livestream-redirect/XHQQ_FMAAC.aac",
    "codec": "AAC+",
    "bitrate": 32,
    "needsResolve": false,
    "lat": 25.683540067610764,
    "lon": -100.31599044799806,
    "language": "spanish"
  },
  {
    "name": "BANDOLERA 92.3 (Ciudad del Carmen) - 92.3 FM - XHPCDC-FM - Grupo Audiorama Comunicaciones / NRM Comunicaciones - Ciudad del Carmen, Campeche",
    "url": "https://cdn1.onstream.audio/proxy/xhpcdc/stream",
    "codec": "MP3",
    "bitrate": 96,
    "needsResolve": false,
    "lat": 18.650072480511373,
    "lon": -91.81360244750977,
    "language": "spanish"
  },
  {
    "name": "BBC RADIO 1 ANTHEMS UK: All-day anthems from the 00s to now. Londres, Inglaterra",
    "url": "https://as-hls-ww.live.cf.md.bbci.co.uk/pool_11351741/live/ww/bbc_radio_one_anthems/bbc_radio_one_anthems.isml/bbc_radio_one_anthems-audio%3d96000.norewind.m3u8",
    "codec": "UNKNOWN",
    "bitrate": 0,
    "needsResolve": false,
    "lat": null,
    "lon": null,
    "language": "english"
  },
  {
    "name": "BBC RADIO 1 DANCE UK: The biggest current, future and classic dance vibes. Londres, Inglaterra",
    "url": "http://151.80.56.90:8090/bbc_radio_one_dance.aac",
    "codec": "AAC",
    "bitrate": 0,
    "needsResolve": false,
    "lat": null,
    "lon": null,
    "language": "english"
  },
  {
    "name": "BEAT: Total Music",
    "url": "https://playerservices.streamtheworld.com/api/livestream-redirect/XHSONFMAAC.aac",
    "codec": "AAC+",
    "bitrate": 48,
    "needsResolve": false,
    "lat": 19.43349589121079,
    "lon": -99.13324356079102,
    "language": "spanish"
  },
  {
    "name": "BEATLES RADIO",
    "url": "http://stream.zeno.fm/e4auhdgm6cquv",
    "codec": "MP3",
    "bitrate": 0,
    "needsResolve": false,
    "lat": null,
    "lon": null,
    "language": "spanish"
  },
  {
    "name": "BEAUTIFUL Instrumentals",
    "url": "http://s3.voscast.com:10038/",
    "codec": "MP3",
    "bitrate": 128,
    "needsResolve": false,
    "lat": null,
    "lon": null,
    "language": "english"
  },
  {
    "name": "BELLA MÚSICA 106.7 (Tapachula) - 106.7 FM - XHTPC-FM - Valanci Media Group - Tapachula, Chiapas",
    "url": "https://stream.zeno.fm/scdv0t33gd0uv",
    "codec": "AAC",
    "bitrate": 0,
    "needsResolve": false,
    "lat": 14.904937132889549,
    "lon": -92.26017951965332,
    "language": "spanish"
  },
  {
    "name": "BELLA MÚSICA 90.9 (Veracruz) - 90.9 FM - XHVER-FM - Valanci Media Group - Boca del Río, Veracruz",
    "url": "https://stream.zeno.fm/reqz9p23gd0uv",
    "codec": "MP3",
    "bitrate": 0,
    "needsResolve": false,
    "lat": 19.134938853650677,
    "lon": -96.1045414209366,
    "language": "spanish"
  },
  {
    "name": "BELLA MÚSICA 93.1 (Tuxtla) - 93.1 FM - XHREZ-FM - Valanci Media Group - Tuxtla Gutiérrez, Chiapas",
    "url": "https://stream.zeno.fm/ayrbxv13gd0uv",
    "codec": "AAC",
    "bitrate": 0,
    "needsResolve": false,
    "lat": 16.75470377524286,
    "lon": -93.11488151550292,
    "language": "spanish"
  },
  {
    "name": "BFM 99.5 (Hermosillo) - 99.5 FM - XHFEM-FM - Bura Multimedia - Hermosillo, Sonora",
    "url": "https://app.sonicpanelradio.com:8520/stream",
    "codec": "MP3",
    "bitrate": 128,
    "needsResolve": false,
    "lat": 29.096306760214723,
    "lon": -110.9696388244629,
    "language": "spanish"
  },
  {
    "name": "BJB 570 (Monterrey) - 570 AM - XEBJB-AM - Grupo Radio Alegría - Monterrey, Nuevo León",
    "url": "https://playerservices.streamtheworld.com/api/livestream-redirect/ROMANTICA_1340AMAAC.aac",
    "codec": "AAC+",
    "bitrate": 48,
    "needsResolve": false,
    "lat": 25.68141048571951,
    "lon": -100.31538963317873,
    "language": "spanish"
  },
  {
    "name": "BLU FM 92.3 (León) - 92.3 FM - XHOI-FM - Promomedios - Leon, Guanajuato",
    "url": "https://stream.zeno.fm/0w7y1mu0ra0uv",
    "codec": "AAC",
    "bitrate": 0,
    "needsResolve": false,
    "lat": 21.123698726211636,
    "lon": -101.68267250061037,
    "language": "spanish"
  },
  {
    "name": "BLU FM 92.3 (León) - 92.3 FM - XHOI-FM - Promomedios - León, Guanajuato",
    "url": "https://strcdn.klm99.com:8066/stream",
    "codec": "AAC+",
    "bitrate": 128,
    "needsResolve": false,
    "lat": 21.12257783637803,
    "lon": -101.68301582336429,
    "language": "spanish"
  },
  {
    "name": "BOLLOCKS Rock & Metal Radio",
    "url": "https://s44.myradiostream.com/6588/;?type=http&nocache=1571393528?0.9592127816686777",
    "codec": "MP3",
    "bitrate": 80,
    "needsResolve": false,
    "lat": null,
    "lon": null,
    "language": "english,spanish"
  },
  {
    "name": "BONITA 91.1 (Ciudad Mante) - 91.1 FM - XHECM-FM - ORT Radio - Ciudad Mante, Tamaulipas",
    "url": "https://cast1.my-control-panel.com/proxy/bonita/stream/",
    "codec": "MP3",
    "bitrate": 64,
    "needsResolve": false,
    "lat": 22.744131812348087,
    "lon": -98.97188186645508,
    "language": "spanish"
  },
  {
    "name": "BOOM FM  104.7 (Tampico) - 104.7 FM - XHERP-FM - Grupo AS Comunicación - Tampico, Tamaulipas",
    "url": "https://stream.zeno.fm/mgypyrbf5ottv",
    "codec": "MP3",
    "bitrate": 0,
    "needsResolve": false,
    "lat": 22.21689217515128,
    "lon": -97.86020278930664,
    "language": "spanish"
  },
  {
    "name": "BOOM FM 101.5 (Comitán) - 101.5 FM - XHPCOM-FM - Boom FM - Comitán, Chiapas",
    "url": "https://stream.freepi.io:8200/stream",
    "codec": "MP3",
    "bitrate": 96,
    "needsResolve": false,
    "lat": 16.24426505084511,
    "lon": -92.1342658996582,
    "language": "spanish"
  },
  {
    "name": "BOOM FM 89.3 (José María Morelos) - 89.3 FM -XHCCBP-FM - Cadena Boom FM - José María Morelos, Quintana Roo",
    "url": "https://stream.freepi.io:8204/live",
    "codec": "MP3",
    "bitrate": 80,
    "needsResolve": false,
    "lat": 19.750833327630954,
    "lon": -88.70919227600098,
    "language": "spanish"
  },
  {
    "name": "BOOM FM 89.9 (Felipe Carrillo Puerto) - 89.9 FM -XHCCBP-FM - Cadena Boom FM - Felipe Carrillo Puerto, Quintana Roo",
    "url": "https://stream.freepi.io:8206/stream",
    "codec": "MP3",
    "bitrate": 80,
    "needsResolve": false,
    "lat": null,
    "lon": null,
    "language": "spanish"
  },
  {
    "name": "BOOM FM 91.5 (Cintalapa) - 91.5 FM - XHCCAG-FM - Cadena Boom FM - Cintalapa, Chiapas",
    "url": "https://stream.freepi.io:8202/stream",
    "codec": "MP3",
    "bitrate": 96,
    "needsResolve": false,
    "lat": 16.692067005150523,
    "lon": -93.72410774230958,
    "language": "spanish"
  },
  {
    "name": "BRISAS DE MONTEBELLO 89.9 (La Trinitaria) - 89.9 FM - XHCTN-FM - Sistema Chiapaneco de Radio, Televisión y Cinematografía - La Trinitaria, Chiapas",
    "url": "http://streamingcwsradio10.com:9350/;",
    "codec": "AAC+",
    "bitrate": 48,
    "needsResolve": false,
    "lat": 16.121667518690675,
    "lon": -92.05560207366943,
    "language": "spanish"
  },
  {
    "name": "BUENAVISTA RADIO 102.9 (Ciudad Valles) - 102.9 FM - XHCSBY-FM - Medios Digitales Culturales de la Huasteca, A.C. - Ciudad Valles, San Luis Potosí",
    "url": "https://cast1.asurahosting.com/proxy/bnavista/;",
    "codec": "MP3",
    "bitrate": 320,
    "needsResolve": false,
    "lat": 21.99237821518689,
    "lon": -99.00960445404054,
    "language": "spanish"
  },
  {
    "name": "BUENISIIMA (CDMX) - 1530 AM - XEUR-AM - Grupo Audiorama Comunicaciones - Ciudad de México",
    "url": "https://ss1.audiorama.com.mx:6678/stream",
    "codec": "MP3",
    "bitrate": 64,
    "needsResolve": false,
    "lat": 19.437057246001498,
    "lon": -99.13496017456056,
    "language": ""
  },
  {
    "name": "BUENISIIMA (Mexicali) - 850 AM - XEZF-AM - Grupo Audiorama Comunicaciones - Mexicali, Baja California",
    "url": "https://ss1.audiorama.com.mx:6594/",
    "codec": "MP3",
    "bitrate": 64,
    "needsResolve": false,
    "lat": 32.64393269256161,
    "lon": -115.47574996948244,
    "language": ""
  },
  {
    "name": "BUENISIIMA 103.9 (Acapulco) - 103.9 FM - XHPO-FM - Grupo Audiorama Comunicaciones - Acapulco, Guerrero",
    "url": "https://ss1.audiorama.com.mx:6606/stream",
    "codec": "MP3",
    "bitrate": 128,
    "needsResolve": false,
    "lat": 16.868252217983937,
    "lon": -99.8936176300049,
    "language": "spanish"
  },
  {
    "name": "BUENISIIMA 1530 y 1590 (CDMX) - 1590 AM - XEVOZ-AM - Grupo Audiorama Comunicaciones - Ciudad de MéxicO",
    "url": "https://sg.centrocibernetico.com/audiorama-xevoz",
    "codec": "AAC+",
    "bitrate": 24,
    "needsResolve": false,
    "lat": 19.434467177536227,
    "lon": -99.13461685180664,
    "language": "spanish"
  },
  {
    "name": "BUENISIIMA 1530 y 1590 (CDMX) - 1590 AM - XEVOZ-AM - Grupo Audiorama Comunicaciones - Ciudad de México",
    "url": "http://s1.audiorama.mx:6648/stream",
    "codec": "MP3",
    "bitrate": 64,
    "needsResolve": false,
    "lat": 19.433428941166248,
    "lon": -99.1532662510872,
    "language": "spanish"
  },
  {
    "name": "BUENISIIMA 850 (Mexicali) - 850 AM - XEZF-AM - Grupo Audiorama Comunicaciones - Mexicali, Baja California",
    "url": "https://ss1.audiorama.com.mx:6594/stream",
    "codec": "MP3",
    "bitrate": 64,
    "needsResolve": false,
    "lat": 32.625428944784474,
    "lon": -115.44931411743164,
    "language": "spanish"
  },
  {
    "name": "BUENISIIMA 88.5 (Cuernavaca) - 88.5 FM - XHCM-FM - Grupo Audiorama Comunicaciones - Cuernavaca, Morelos",
    "url": "http://s1.audiorama.mx:6628/stream",
    "codec": "MP3",
    "bitrate": 128,
    "needsResolve": false,
    "lat": 18.922487669936725,
    "lon": -99.23375129699708,
    "language": "spanish"
  },
  {
    "name": "BUENISIIMA 88.5 FM - CUERNAVACA",
    "url": "http://s1.audiorama.mx:6628/;",
    "codec": "MP3",
    "bitrate": 128,
    "needsResolve": false,
    "lat": null,
    "lon": null,
    "language": "spanish"
  },
  {
    "name": "BUENÍSIIMA: Está Buenísima",
    "url": "http://s1.audiorama.mx:6678/stream",
    "codec": "MP3",
    "bitrate": 64,
    "needsResolve": false,
    "lat": 19.434467177536227,
    "lon": -99.1325569152832,
    "language": "spanish"
  },
  {
    "name": "Baladas del Recuerdo",
    "url": "https://stream-165.zeno.fm/g7vk70rqr68uv?zt=eyJhbGciOiJIUzI1NiJ9.eyJzdHJlYW0iOiJnN3ZrNzBycXI2OHV2IiwiaG9zdCI6InN0cmVhbS0xNjUuemVuby5mbSIsInJ0dGwiOjUsImp0aSI6IkRjREZrSkpzUmZHMGVuUGxaRzRxQUEiLCJpYXQiOjE3NTk3NjYwNzEsImV4cCI6MTc1OTc2NjEzMX0.pAurlXoSheL8O5TAQ3",
    "codec": "MP3",
    "bitrate": 0,
    "needsResolve": false,
    "lat": 18.48517288322701,
    "lon": -99.07616252345235,
    "language": "español mexico"
  },
  {
    "name": "Bandolera (Ciudad del Carmen) - 92.3 FM - XHPCDC-FM - NRM Comunicaciones - Ciudad del Carmen, Campeche",
    "url": "https://ss1.audiorama.com.mx:6570/stream",
    "codec": "MP3",
    "bitrate": 96,
    "needsResolve": false,
    "lat": 18.634758799183977,
    "lon": -91.8030881881714,
    "language": ""
  },
  {
    "name": "Beat Radio World",
    "url": "https://cast1.asurahosting.com/proxy/beatrad1/stream/;",
    "codec": "MP3",
    "bitrate": 192,
    "needsResolve": false,
    "lat": null,
    "lon": null,
    "language": ""
  },
  {
    "name": "Beatles Radio México (MP3)",
    "url": "http://stream.zeno.fm/bvmq1vtbrmzuv",
    "codec": "MP3",
    "bitrate": 0,
    "needsResolve": false,
    "lat": null,
    "lon": null,
    "language": "spanish"
  },
  {
    "name": "Bella Voces Radio",
    "url": "http://radio.redcoahuila.net:8116/;",
    "codec": "MP3",
    "bitrate": 128,
    "needsResolve": false,
    "lat": null,
    "lon": null,
    "language": "spanish"
  },
  {
    "name": "Best FM - Best Retro Music in English",
    "url": "https://stream.zeno.fm/9ep9qg3za6quv",
    "codec": "MP3",
    "bitrate": 0,
    "needsResolve": false,
    "lat": null,
    "lon": null,
    "language": "english"
  },
  {
    "name": "Bonita FM 95.1",
    "url": "https://stream.zeno.fm/05g7pygka3quv",
    "codec": "MP3",
    "bitrate": 0,
    "needsResolve": false,
    "lat": null,
    "lon": null,
    "language": "spanish"
  },
  {
    "name": "Buenisiima (Acapulco) - 103.9 FM - XHPO-FM - Grupo Audiorama Comunicaciones - Acapulco, GR",
    "url": "https://ss1.audiorama.com.mx:6606/",
    "codec": "MP3",
    "bitrate": 128,
    "needsResolve": false,
    "lat": 16.860806628476766,
    "lon": -99.894516247593,
    "language": "spanish"
  },
  {
    "name": "Buenisiima (Mexicali) - 850 AM - XEZF-AM - Grupo Audiorama Comunicaciones - Mexicali, BC",
    "url": "https://ss1.audiorama.com.mx:6594/;",
    "codec": "MP3",
    "bitrate": 64,
    "needsResolve": false,
    "lat": 32.625728035685526,
    "lon": -115.44732284964996,
    "language": "spanish"
  },
  {
    "name": "CABO MIL 96.3 (Los Cabos) - 96.3 FM - XHSJS-FM - San José Del Cabo, Baja California 🆕",
    "url": "https://s2.radio.co/s77395f3d5/listen",
    "codec": "MP3",
    "bitrate": 128,
    "needsResolve": false,
    "lat": 22.907715124590453,
    "lon": -109.8621439933777,
    "language": "spanish"
  },
  {
    "name": "CABO MIL 96.3 (Los Cabos) - 96.3 FM - XHSJS-FM - San José del Cabo, Baja California",
    "url": "https://streamingcwsradio30.com:7070/stream",
    "codec": "MP3",
    "bitrate": 128,
    "needsResolve": false,
    "lat": 23.061690472716244,
    "lon": -109.70320701599124,
    "language": "spanish"
  },
  {
    "name": "CADENA AZUL 95.7 (Atlacomulco) - 95.7 FM - XHATF-FM - Grupo Rotativo - Atlacomulco, Estado de México",
    "url": "https://01.solumedia.com.ar:10023/stream",
    "codec": "MP3",
    "bitrate": 128,
    "needsResolve": false,
    "lat": 19.80123293125664,
    "lon": -99.87387657165527,
    "language": "spanish"
  },
  {
    "name": "CALI 93.9 (Los Ángeles) - 93.9 FM - KLLI - Meruelo Group - Los Ángeles, California, EUA",
    "url": "https://playerservices.streamtheworld.com/api/livestream-redirect/KLLI_FMAAC.aac",
    "codec": "AAC+",
    "bitrate": 32,
    "needsResolve": false,
    "lat": null,
    "lon": null,
    "language": "spanish"
  },
  {
    "name": "CALVILLO FM 101.3 (Calvillo) - 101.3 FM - XHSCCH-FM - Comunicar para Ayudar, A.C. - Calvillo, Aguascalientes",
    "url": "https://stream.zeno.fm/af12yk53ud0uv",
    "codec": "MP3",
    "bitrate": 0,
    "needsResolve": false,
    "lat": 21.84675184920304,
    "lon": -102.7185845375061,
    "language": "spanish"
  },
  {
    "name": "CANDELA 104.7 (La Barca) - 104.7 FM - XHLB-FM - Cadena RASA - Jamay, Jalisco",
    "url": "https://stream.zeno.fm/ct6cvy2vqp8uv",
    "codec": "MP3",
    "bitrate": 0,
    "needsResolve": false,
    "lat": 20.28744038161033,
    "lon": -102.54527091979982,
    "language": "spanish"
  },
  {
    "name": "CANDELA 1130 (Uruapan) - 1130 AM - XEFN-AM - Cadena RASA - Uruapan, Michoacán",
    "url": "http://sp3.servidorrprivado.com:3334/stream",
    "codec": "MP3",
    "bitrate": 64,
    "needsResolve": false,
    "lat": 19.416535385314315,
    "lon": -102.05328941345216,
    "language": "spanish"
  },
  {
    "name": "CANDELA 92.7 (Valladolid) - 92.7 FM - XHUM-FM - Cadena RASA - Valladolid, Yucatán",
    "url": "https://stream.zeno.fm/nv2zf1kc4p8uv",
    "codec": "MP3",
    "bitrate": 0,
    "needsResolve": false,
    "lat": 20.69217574681323,
    "lon": -88.20107460021973,
    "language": "spanish"
  },
  {
    "name": "CANDELA 94.1 (San Luis Potosí) - 94.1 FM - XHRASA-FM - Cadena RASA - San Luis Potosí, San Luis Potosí",
    "url": "https://stream-284.zeno.fm/q8mt825e0chvv?zt=eyJhbGciOiJIUzI1NiJ9.eyJzdHJlYW0iOiJxOG10ODI1ZTBjaHZ2IiwiaG9zdCI6InN0cmVhbS0yODQuemVuby5mbSIsInRtIjpmYWxzZSwicnR0bCI6NSwianRpIjoieVVOLWczemJUN0MtcE1HMi10eVR6dyIsImlhdCI6MTc3ODczMzYyMCwiZXhwIjoxNzc4NzMzNjgwfQ.MsfL7gbcrfLx0CbeiVXcpKwmaq4Fu1EGKjD_n1N6-Tg",
    "codec": "MP3",
    "bitrate": 0,
    "needsResolve": false,
    "lat": 22.152712253352576,
    "lon": -100.97697257995608,
    "language": "spanish"
  },
  {
    "name": "CANDELA 94.1 (Zamora) - 94.1 FM - XHGT-FM - Cadena RASA - Zamora, Michoacán",
    "url": "https://stream.zeno.fm/9t73skxn8k8uv",
    "codec": "MP3",
    "bitrate": 0,
    "needsResolve": false,
    "lat": 19.984243646271665,
    "lon": -102.28597640991212,
    "language": "spanish"
  },
  {
    "name": "CANDELA 95.1 (Apatzingán) - 95.1 FM - XHAPM-FM - Cadena RASA - Apatzingán, Michoacán",
    "url": "https://stream-282.zeno.fm/kvdvkhbtvchvv?zt=eyJhbGciOiJIUzI1NiJ9.eyJzdHJlYW0iOiJrdmR2a2hidHZjaHZ2IiwiaG9zdCI6InN0cmVhbS0yODIuemVuby5mbSIsInRtIjpmYWxzZSwicnR0bCI6NSwianRpIjoiQVp5VmNRU1pUOS1HSS1HVFBzbFVrZyIsImlhdCI6MTc4MDcxMzI5NSwiZXhwIjoxNzgwNzEzMzU1fQ.wEaLUEkB0hunuf_W4nmZs30IUHY5KLyYmP7hDs-d7k4",
    "codec": "MP3",
    "bitrate": 0,
    "needsResolve": false,
    "lat": 19.09274196195962,
    "lon": -102.35386848449708,
    "language": "spanish"
  },
  {
    "name": "CANDELA 95.3 (Mérida) - 95.3 FM - XHMH-FM - Cadena RASA - Mérida, Yucatán",
    "url": "https://stream.zeno.fm/tbnc01hc4p8uv",
    "codec": "MP3",
    "bitrate": 0,
    "needsResolve": false,
    "lat": 20.96845512592627,
    "lon": -89.62414741516113,
    "language": "spanish"
  },
  {
    "name": "CANDELA 96.3 (Tizimín) - 96.3 FM - XHUP-FM - Cadena RASA - Tizimín, Yucatán",
    "url": "https://stream.zeno.fm/kg0w97kc4p8uv",
    "codec": "MP3",
    "bitrate": 0,
    "needsResolve": false,
    "lat": 21.14451371169359,
    "lon": -88.15163612365724,
    "language": "spanish"
  },
  {
    "name": "CAPITAL ANTHEMS UK: The Songs Capital Made Famous - Londres, Inglaterra",
    "url": "https://media-ssl.musicradio.com/CapitalAnthemsMP3",
    "codec": "MP3",
    "bitrate": 128,
    "needsResolve": false,
    "lat": null,
    "lon": null,
    "language": "english"
  },
  {
    "name": "CAPITAL CHILL UK: Non-stop chilled beats - Londres, Inglaterra",
    "url": "https://media-ssl.musicradio.com/CapitalChill",
    "codec": "AAC",
    "bitrate": 48,
    "needsResolve": false,
    "lat": null,
    "lon": null,
    "language": "english"
  },
  {
    "name": "CAPITAL UK: The UK's No.1 Hit Music Station - Londres, Inglaterra",
    "url": "http://ice-the.musicradio.com/Capital",
    "codec": "AAC",
    "bitrate": 48,
    "needsResolve": false,
    "lat": null,
    "lon": null,
    "language": "english"
  },
  {
    "name": "CAPULLO FM 105.1 (Francisco I. Madero) - 105.1 FM - XHYD-FM - GPS Media - Francisco I. Madero, Coahuila",
    "url": "https://stream.zeno.fm/3qv5hnktu4rvv",
    "codec": "MP3",
    "bitrate": 0,
    "needsResolve": false,
    "lat": 25.77558810280485,
    "lon": -103.2719135284424,
    "language": "spanish"
  },
  {
    "name": "CARIBE FM 101.9 (Cancún) - 101.9 FM - XHCBJ-FM - SQCS (Sistema Quintanarroense de Comunicación Social) - Cancún, Quintana Roo",
    "url": "https://sp2.servidorrprivado.com/8042/stream",
    "codec": "MP3",
    "bitrate": 128,
    "needsResolve": false,
    "lat": 21.153281649388816,
    "lon": -86.84091567993165,
    "language": "spanish"
  },
  {
    "name": "CATEDRAL DE LA MÚSICA (Zamora) - 91.7 FM - XHQL-FM - Cadena RASA - Zamora, Michoacán",
    "url": "https://stream-285.zeno.fm/1parq976sk8uv?zt=eyJhbGciOiJIUzI1NiJ9.eyJzdHJlYW0iOiIxcGFycTk3NnNrOHV2IiwiaG9zdCI6InN0cmVhbS0yODUuemVuby5mbSIsInRtIjpmYWxzZSwicnR0bCI6NSwianRpIjoiemRYLTNxNU9TX0d3UEE2cXBNTGZJUSIsImlhdCI6MTc4MDMwODMzMywiZXhwIjoxNzgwMzA4MzkzfQ.OaeoQQtIfD6mQzur_Tfq9muXZ1dOaBWCTSFT--NrMSE",
    "codec": "MP3",
    "bitrate": 0,
    "needsResolve": false,
    "lat": 19.983797480996497,
    "lon": -102.28417396545412,
    "language": "spanish"
  },
  {
    "name": "CAXCÁN FM 95.1 (Jalpa) - 95.1 FM - XHJRS-FM - Grupo Radiofónico ZER - Jalpa, Zacatecas",
    "url": "https://cast.zuperdns.net/8008/stream/;stream.mp3?nochache=0.3141970676706438",
    "codec": "AAC+",
    "bitrate": 80,
    "needsResolve": false,
    "lat": 21.63315687996717,
    "lon": -102.97772884368898,
    "language": "spanish"
  },
  {
    "name": "CHILANGO RADIO: La Radio Que Viene, Viene",
    "url": "https://stream.radio.co/s938b68214/listen",
    "codec": "MP3",
    "bitrate": 192,
    "needsResolve": false,
    "lat": 19.43371468408008,
    "lon": -99.13380146026611,
    "language": "spanish"
  },
  {
    "name": "CIELOS ABIERTOS FM 94.7 (Ciudad Valles) - 94.7 FM - XHPEAA-FM - Ciudad Valles, San Luis Potosí",
    "url": "https://radiosprofecionalesmex.com:8002/stream",
    "codec": "MP3",
    "bitrate": 128,
    "needsResolve": false,
    "lat": 21.99251873256832,
    "lon": -99.0092182159424,
    "language": "spanish"
  },
  {
    "name": "CLASSIC 106.9 (MTY) - 106.9 FM - XHPJ-FM - Multimedios Radio - Monterrey, Nuevo León",
    "url": "https://mdstrm.com/audio/673788019b826f0dc1842750/icecast.audio",
    "codec": "AAC",
    "bitrate": 93,
    "needsResolve": false,
    "lat": 25.681101076784145,
    "lon": -100.31659126281738,
    "language": "spanish"
  },
  {
    "name": "CLASSIC 93.9 (Torreón) - 93.9 FM - XHWN-FM - Multimedios Radio - Torreón, Coahuila",
    "url": "https://mdstrm.com/audio/67378091f22f160aaf4c34b1/icecast.audio",
    "codec": "AAC",
    "bitrate": 93,
    "needsResolve": false,
    "lat": 25.544537229284064,
    "lon": -103.41035842895508,
    "language": "spanish"
  },
  {
    "name": "CLASSIC 96.1 (Tampico) - 96.1 FM - XHON-FM - Multimedios Radio - Tampico, Tamaulipas",
    "url": "https://mdstrm.com/audio/673784f2f22f160aaf4c8e8c/icecast.audio",
    "codec": "AAC",
    "bitrate": 93,
    "needsResolve": false,
    "lat": 22.21661158688351,
    "lon": -97.85805702209474,
    "language": "spanish"
  },
  {
    "name": "CLN 100.9 La Plebona XHCSJQ",
    "url": "https://radios.scannersound.xyz/sinaloa.culiacan/xhcsjq.aac/icecast.audio",
    "codec": "AAC+",
    "bitrate": 32,
    "needsResolve": false,
    "lat": null,
    "lon": null,
    "language": ""
  },
  {
    "name": "COAHUILA HOY RADIO (Torreón) - 97.5 FM - XHCSBB-FM - Grupo M Radio - Torreón, Coahuila",
    "url": "https://cast1.my-control-panel.com/proxy/coahuilahoy/stream",
    "codec": "MP3",
    "bitrate": 64,
    "needsResolve": false,
    "lat": 25.543520814867616,
    "lon": -103.41087341308597,
    "language": "spanish"
  },
  {
    "name": "COAHUILA HOY RADIO 102.5 (Saltillo) - 102.5 FM - XHSHT-FM - Grupo M Radio - Saltillo, Coahuila",
    "url": "https://cast1.asurahosting.com/proxy/coahuilasaltillo/stream",
    "codec": "MP3",
    "bitrate": 64,
    "needsResolve": false,
    "lat": 25.424945456427007,
    "lon": -100.99345207214355,
    "language": "spanish"
  },
  {
    "name": "COAHUILA HOY RADIO 106.3 (Piedras Negras) - 106.3 FM - XHPSP-FM - Grupo M Radio - Piedras Negras, Coahuila",
    "url": "https://cast1.asurahosting.com/proxy/coahuilapiedras/stream",
    "codec": "MP3",
    "bitrate": 64,
    "needsResolve": false,
    "lat": 28.692208790428676,
    "lon": -100.54112434387208,
    "language": "spanish"
  },
  {
    "name": "COAHUILA HOY RADIO 93.1 (Monclova) - 93.1 FM - XHCSBA-FM - Grupo M Radio - Monclova, Coahuila",
    "url": "https://cast1.my-control-panel.com/proxy/coahuilahoy2/stream",
    "codec": "MP3",
    "bitrate": 128,
    "needsResolve": false,
    "lat": 26.90274717460126,
    "lon": -101.41865730285645,
    "language": "spanish"
  },
  {
    "name": "COAHUILA RADIO 89.7 (Saltillo) - 89.7 FM - XHSOC-FM - Coahuila Radio y Televisión - Saltillo, Coahuila",
    "url": "https://cryt-stream.mx:8443/cryt-xhsoc",
    "codec": "MP3",
    "bitrate": 160,
    "needsResolve": false,
    "lat": 25.42432531200053,
    "lon": -100.9932804107666,
    "language": "spanish"
  },
  {
    "name": "CON MADRE 92.1 (Ciudad Obregón) - 92.1 FM - XHOBS-FM - Radiorama Sonora - Ciudad Obregón, Sonora",
    "url": "https://stream.freepi.io:8408/live",
    "codec": "MP3",
    "bitrate": 128,
    "needsResolve": false,
    "lat": 27.486882398618796,
    "lon": -109.936580657959,
    "language": "spanish"
  },
  {
    "name": "CONEXIÓN 92.7 (Aguascalientes) - 92.7 FM - XHCPDI-FM - Radio y Televisión de Aguascalientes - Aguascalientes, Aguascalientes",
    "url": "https://streamingcwsradio30.com:7008/stream",
    "codec": "MP3",
    "bitrate": 160,
    "needsResolve": false,
    "lat": 21.882330354083077,
    "lon": -102.29550361633302,
    "language": "spanish"
  },
  {
    "name": "CONEXIÓN 98.1 (Colima) - 98.1 FM - XHIRC-FM - Instituto Colimense de Radio y Televisión - Colima, Colima",
    "url": "https://streamingcwsradio30.com/8270/stream",
    "codec": "MP3",
    "bitrate": 128,
    "needsResolve": false,
    "lat": 19.24228767127357,
    "lon": -103.72776031494142,
    "language": "spanish"
  },
  {
    "name": "CONTACTO 98.9 (Chalco) - 98.9 FM - XHCHAL-FM - Comunicaciones en Contacto, Cultura y Bienestar Social, A.C. - Chalco, Estado de México",
    "url": "https://stm11.xcast.com.br:9640/;",
    "codec": "MP3",
    "bitrate": 112,
    "needsResolve": false,
    "lat": 19.26314542025243,
    "lon": -98.89660835266116,
    "language": "spanish"
  },
  {
    "name": "CRYSTAL 103.7 (Valle de México) - 103.7 FM - XHCME-FM - Grupo Siete - Coacalco, Estado de México",
    "url": "https://playerservices.streamtheworld.com/api/livestream-redirect/XHCMEFMAAC.aac",
    "codec": "AAC+",
    "bitrate": 64,
    "needsResolve": false,
    "lat": 19.63658661069885,
    "lon": -99.09423351287845,
    "language": "spanish"
  },
  {
    "name": "CRYSTAL 104.9 (Tenancingo) - 104.9 FM - XHMLO-FM - Grupo Siete - Tenancingo, Estado de México",
    "url": "https://playerservices.streamtheworld.com/api/livestream-redirect/XHMLOFMAAC.aac",
    "codec": "AAC+",
    "bitrate": 64,
    "needsResolve": false,
    "lat": 18.962935536145473,
    "lon": -99.5923948287964,
    "language": "spanish"
  },
  {
    "name": "CRYSTAL 106.1 (Pachuca) - 106.1 FM - XHPCA-FM - Grupo Siete - Pachuca, Hidalgo",
    "url": "https://playerservices.streamtheworld.com/api/livestream-redirect/XHMYFMAAC.aac",
    "codec": "AAC+",
    "bitrate": 64,
    "needsResolve": false,
    "lat": 20.11860778938863,
    "lon": -98.74073982238772,
    "language": "spanish"
  },
  {
    "name": "CRYSTAL 1240 (Ciudad Juárez) - 1240 AM - XEWG-AM - Grupo Siete - Ciudad Juárez, Chihuahua",
    "url": "https://playerservices.streamtheworld.com/api/livestream-redirect/XEWGAMAAC.aac",
    "codec": "AAC+",
    "bitrate": 64,
    "needsResolve": false,
    "lat": 31.691881858556386,
    "lon": -106.42301559448244,
    "language": "spanish"
  },
  {
    "name": "CRYSTAL 93.3 (Toluca) - 93.3 FM - XHEDT-FM - Grupo Siete - Toluca, Estado de México",
    "url": "https://playerservices.streamtheworld.com/api/livestream-redirect/XHEDTFMAAC.aac",
    "codec": "AAC+",
    "bitrate": 64,
    "needsResolve": false,
    "lat": 19.29441820775271,
    "lon": -99.65638160705566,
    "language": "spanish"
  },
  {
    "name": "CUMBIAS INMORTALES RADIO (MTY) - Online - www.cumbiasinmortales.com - Grupo Digital Retroland - Monterrey, Nuevo León",
    "url": "https://panel.retrolandigital.com/listen/cumbias_inmortales_radio/listen",
    "codec": "AAC",
    "bitrate": 96,
    "needsResolve": false,
    "lat": 25.680791667045295,
    "lon": -100.31521797180176,
    "language": "spanish"
  },
  {
    "name": "Cafe Radio Pacayal",
    "url": "https://stream.zeno.fm/c6ivk9nkbabtv",
    "codec": "MP3",
    "bitrate": 0,
    "needsResolve": false,
    "lat": null,
    "lon": null,
    "language": ""
  },
  {
    "name": "Cafe Romantico Radio",
    "url": "https://panel.retrolandigital.com/listen/cafe_romantico_radio/listen",
    "codec": "AAC",
    "bitrate": 96,
    "needsResolve": false,
    "lat": null,
    "lon": null,
    "language": ""
  },
  {
    "name": "Candela (Apatzingán) - 95.1 FM / 1340 AM - XHAPM-FM / XEAPM-AM - Cadena RASA - Apatzingán, Michoacán",
    "url": "https://stream-153.zeno.fm/kvdvkhbtvchvv?zt=eyJhbGciOiJIUzI1NiJ9.eyJzdHJlYW0iOiJrdmR2a2hidHZjaHZ2IiwiaG9zdCI6InN0cmVhbS0xNTMuemVuby5mbSIsInRtIjpmYWxzZSwicnR0bCI6NSwianRpIjoidVN2QlRtVS1TNS14bFBKekhGOFNwQSIsImlhdCI6MTc2ODQ2MDYyNCwiZXhwIjoxNzY4NDYwNjg0fQ.bzMieCl8U63VJS81JrSyoDAJebiNrqGhZ-55H8Hdczg",
    "codec": "MP3",
    "bitrate": 0,
    "needsResolve": false,
    "lat": 19.09241752495043,
    "lon": -102.35301017761232,
    "language": ""
  },
  {
    "name": "Candela (Morelia) - 90.1 FM / 570 AM - XHLQ-FM / XELQ-AM - Cadena RASA - Morelia, MI",
    "url": "http://s2.mexside.net:9088/stream2",
    "codec": "MP3",
    "bitrate": 128,
    "needsResolve": false,
    "lat": 19.70429648289448,
    "lon": -101.19146347045898,
    "language": "spanish"
  },
  {
    "name": "Candela (San Luis Potosí) - 94.1 FM - XHRASA-FM - Cadena RASA - San Luis Potosí, SL",
    "url": "https://stream-156.zeno.fm/q8mt825e0chvv?zt=eyJhbGciOiJIUzI1NiJ9.eyJzdHJlYW0iOiJxOG10ODI1ZTBjaHZ2IiwiaG9zdCI6InN0cmVhbS0xNTYuemVuby5mbSIsInRtIjpmYWxzZSwicnR0bCI6NSwianRpIjoiOV9GMzBka0ZUNW0xZGctS2VUNkRLQSIsImlhdCI6MTc2ODQ1MzQ0OCwiZXhwIjoxNzY4NDUzNTA4fQ.1_kyyY7R2vxwxjgAEUYjh3iwRWSDoQKKILwwbJ5bbPc",
    "codec": "MP3",
    "bitrate": 0,
    "needsResolve": false,
    "lat": 22.15362892533645,
    "lon": -100.9746551513672,
    "language": "spanish"
  },
  {
    "name": "Candela (Zacapu) - 97.7 FM - XHZU-FM - Cadena RASA - Zacapu, MI",
    "url": "https://stream.zeno.fm/tu7z6rxvqp8uv",
    "codec": "AAC",
    "bitrate": 0,
    "needsResolve": false,
    "lat": 19.818613409909137,
    "lon": -101.79227828979494,
    "language": "spanish"
  },
  {
    "name": "Candela Apatzingán 95.1 FM - 1340 AM",
    "url": "https://stream-154.zeno.fm/kvdvkhbtvchvv?zt=eyJhbGciOiJIUzI1NiJ9.eyJzdHJlYW0iOiJrdmR2a2hidHZjaHZ2IiwiaG9zdCI6InN0cmVhbS0xNTQuemVuby5mbSIsInRtIjpmYWxzZSwicnR0bCI6NSwianRpIjoiTHg1SXFEUkZUaktfcDZwbzV1SVcyQSIsImlhdCI6MTc2ODQzNDgxMywiZXhwIjoxNzY4NDM0ODczfQ.xug4VzrsyLyxCLhjqf9b-nj37a1M1VedEAed4TpWRy4",
    "codec": "MP3",
    "bitrate": 0,
    "needsResolve": false,
    "lat": null,
    "lon": null,
    "language": "spanish"
  },
  {
    "name": "Candela Radio",
    "url": "https://us10a.serverse.com/proxy/72fitnmvk?mp=/stream",
    "codec": "MP3",
    "bitrate": 320,
    "needsResolve": false,
    "lat": null,
    "lon": null,
    "language": "spanish"
  },
  {
    "name": "Catedral de la Música 91.7 FM",
    "url": "https://stream-150.zeno.fm/sbcbukghup8uv?zt=eyJhbGciOiJIUzI1NiJ9.eyJzdHJlYW0iOiJzYmNidWtnaHVwOHV2IiwiaG9zdCI6InN0cmVhbS0xNTAuemVuby5mbSIsInRtIjpmYWxzZSwicnR0bCI6NSwianRpIjoiUGhISldYQ0xSeXVTbmFuNkd6dTdtdyIsImlhdCI6MTc2ODQ0ODI5OSwiZXhwIjoxNzY4NDQ4MzU5fQ.ix4u-VYhY1S7I6T99REA8kylc2ffzIHXx-iMVgrqnj0",
    "codec": "MP3",
    "bitrate": 0,
    "needsResolve": false,
    "lat": null,
    "lon": null,
    "language": "spanish"
  },
  {
    "name": "Chetumal FM - 100.9 FM - XHCHE-FM - SQCS (Sistema Quintanarroense de Comunicación Social) - Chetumal, Quintana Roo",
    "url": "https://sp2.servidorrprivado.com/3981/stream",
    "codec": "MP3",
    "bitrate": 128,
    "needsResolve": false,
    "lat": 18.51571089523897,
    "lon": -88.29995155334474,
    "language": "spanish"
  },
  {
    "name": "Chililines Radio",
    "url": "https://radios.yanapak.org/Chililines%20Radio",
    "codec": "MP3",
    "bitrate": 128,
    "needsResolve": false,
    "lat": 32.50199295286526,
    "lon": -117.04072505235672,
    "language": "american english,español mexico"
  },
  {
    "name": "Cielos Abiertos 94.7 FM",
    "url": "https://s01.digitalserver.org/8100/stream",
    "codec": "MP3",
    "bitrate": 128,
    "needsResolve": false,
    "lat": null,
    "lon": null,
    "language": "spanish"
  },
  {
    "name": "City Pop Guadalajara",
    "url": "http://stream-151.zeno.fm/rmksrt451s8uv?zs=Ei64O-pXRfK7v1PY6Sk29A",
    "codec": "MP3",
    "bitrate": 0,
    "needsResolve": false,
    "lat": 20.621474037732387,
    "lon": -103.35388183593751,
    "language": "spanish"
  },
  {
    "name": "Ciudadana 660 AM \"Te acompaña\" (XEDTL) IMER",
    "url": "https://s2.mexside.net/8026/stream",
    "codec": "MP3",
    "bitrate": 128,
    "needsResolve": false,
    "lat": null,
    "lon": null,
    "language": "spanish"
  },
  {
    "name": "Clasics (Morelia) - 99.1 FM - XHMOM-FM - Medios Radiofónicos de Michoacán - Morelia, Michoacán",
    "url": "https://s4.voscast.com:8759/morelia.mp3",
    "codec": "MP3",
    "bitrate": 64,
    "needsResolve": false,
    "lat": 19.70478131153095,
    "lon": -101.19275093078616,
    "language": "spanish"
  },
  {
    "name": "Classic Rock Universal - Online - Grupo Radio Centro - Ciudad de México",
    "url": "https://playerservices.streamtheworld.com/api/livestream-redirect/XHNZ_COMAAC.aac",
    "codec": "AAC+",
    "bitrate": 32,
    "needsResolve": false,
    "lat": 19.433328950788557,
    "lon": -99.13259983062744,
    "language": "spanish"
  },
  {
    "name": "Conexión 92.7 (Aguascalientes) - 92.7 FM - XHCPDI-FM - Radio y Televisión de Aguascalientes - Aguascalientes, Aguascalientes",
    "url": "https://streamingcwsradio30.com:7008/;",
    "codec": "MP3",
    "bitrate": 160,
    "needsResolve": false,
    "lat": 21.88308948461088,
    "lon": -102.29387283325195,
    "language": "spanish"
  },
  {
    "name": "Creo Radio (Guachochi) - 1620 AM - XECSCGU-AM - Guachochi, Chihuahua",
    "url": "https://stream.zeno.fm/xeyg49wb038uv",
    "codec": "MP3",
    "bitrate": 0,
    "needsResolve": false,
    "lat": 26.820117093510156,
    "lon": -107.075092792511,
    "language": "spanish"
  },
  {
    "name": "Crystal 93.3",
    "url": "https://playerservices.streamtheworld.com/api/livestream-redirect/XHEDTFMAAC.aac?dist=www",
    "codec": "AAC+",
    "bitrate": 64,
    "needsResolve": false,
    "lat": null,
    "lon": null,
    "language": ""
  },
  {
    "name": "Cumbia - La Musica Que Nos Gusta",
    "url": "http://stream-142.zeno.fm/9y6n2h9v2ehvv?zs=haS8YwG0TXWB3MU9AdJVjA",
    "codec": "AAC",
    "bitrate": 0,
    "needsResolve": false,
    "lat": 20.64717780793264,
    "lon": -103.35388183593751,
    "language": "spanish"
  },
  {
    "name": "Cumbia Total (iHeart Radio) - Online - ACIR Online / iHeart Radio - Ciudad de México",
    "url": "https://playerservices.streamtheworld.com/api/livestream-redirect/ACIR40_S01AAC.aac",
    "codec": "AAC+",
    "bitrate": 48,
    "needsResolve": false,
    "lat": 19.43601009439003,
    "lon": -99.14302825927734,
    "language": "spanish"
  },
  {
    "name": "Cumbias Inmortales Corsan",
    "url": "http://stream-164.zeno.fm/a1r491n45qzuv?zs=-u5Rn38LQn6YWSNdfvxVYg",
    "codec": "MP3",
    "bitrate": 0,
    "needsResolve": false,
    "lat": 18.72742110844336,
    "lon": -99.063720703125,
    "language": "spanish"
  },
  {
    "name": "Cumbias del Sureste",
    "url": "https://stream-289.surfernetwork.com/xnoti8wufrgtv?zt=eyJhbGciOiJIUzI1NiJ9.eyJzdHJlYW0iOiJ4bm90aTh3dWZyZ3R2IiwiaG9zdCI6InN0cmVhbS0yODkuc3VyZmVybmV0d29yay5jb20iLCJ0bSI6ZmFsc2UsInJ0dGwiOjUsImp0aSI6IkM1eWJDT0tZUTYtODI5dndHems0WmciLCJpYXQiOjE3ODI2NjI2MzYsImV4cCI6MTc4MjY2MjY5Nn0.gB3yjuHqTeil8SsaJBjy8oTEv9DNW7OCQ6tUTzzzjsQ",
    "codec": "MP3",
    "bitrate": 0,
    "needsResolve": false,
    "lat": null,
    "lon": null,
    "language": "español mexico"
  },
  {
    "name": "Código Libre Radio",
    "url": "http://hoth.alonhosting.com:1860/stream",
    "codec": "MP3",
    "bitrate": 256,
    "needsResolve": false,
    "lat": null,
    "lon": null,
    "language": ""
  },
  {
    "name": "D95 94.9 (Chihuahua) - 94.9 FM - XHCHH-FM - Multimedios Radio - Chihuahua, Chihuahua",
    "url": "https://mdstrm.com/audio/672cf2d514e0b3ed57c840c5/icecast.audio",
    "codec": "AAC",
    "bitrate": 93,
    "needsResolve": false,
    "lat": 28.638587405985323,
    "lon": -106.07771873474124,
    "language": "english,spanish"
  },
  {
    "name": "D99 98.9 (MTY) - 98.9 FM - XHJD-FM - Multimedios Radio - Monterrey, Nuevo León",
    "url": "https://mdstrm.com/audio/662800a9c30cbb3e2e61f44b/icecast.audio",
    "codec": "AAC",
    "bitrate": 93,
    "needsResolve": false,
    "lat": 25.680482256503012,
    "lon": -100.31556129455566,
    "language": "spanish"
  },
  {
    "name": "DIGIMIX 95 95.9 (La Paz) - 95.9 FM - XHPAL-FM - Promomedios California - La Paz, Baja California",
    "url": "https://stream.zeno.fm/pgs4nreif6yvv",
    "codec": "AAC",
    "bitrate": 0,
    "needsResolve": false,
    "lat": 24.162343330311952,
    "lon": -110.3156089782715,
    "language": "spanish"
  },
  {
    "name": "DIGITAL 101.5 (Reynosa) - 101.5 FM - XHAVO-FM - Radio United - Reynosa, Tamaulipas",
    "url": "https://live.amperwave.net/manifest/rcomm-xhavofmaac-hlsc4.m3u8?source=v7player",
    "codec": "AAC+",
    "bitrate": 64,
    "needsResolve": false,
    "lat": 26.095080623367004,
    "lon": -98.2711172103882,
    "language": "spanish"
  },
  {
    "name": "DIGITAL 102.9 (MTY) - 102.9 FM - XHMG-FM - Grupo Radio Alegría - Monterrey, Nuevo León",
    "url": "https://playerservices.streamtheworld.com/api/livestream-redirect/DIGITAL_1029FMAAC.aac",
    "codec": "AAC+",
    "bitrate": 48,
    "needsResolve": false,
    "lat": 25.68656154299991,
    "lon": -100.31375885009768,
    "language": "spanish"
  },
  {
    "name": "DIGITAL 103.1 (Ciudad Acuña) - 103.1 FM - XHKD-FM - RCG Media - Ciudad Acuña, Coahuila",
    "url": "https://radio.rcg.com.mx:7005/stream",
    "codec": "MP3",
    "bitrate": 96,
    "needsResolve": false,
    "lat": 29.325732729373403,
    "lon": -100.93457221984865,
    "language": "spanish"
  },
  {
    "name": "DIGITAL 106.5 (Saltillo) - 106.5 FM - XHZCN-FM - RCG Media - Saltillo, Coahuila",
    "url": "https://radio.rcg.com.mx:7000/",
    "codec": "MP3",
    "bitrate": 192,
    "needsResolve": false,
    "lat": 25.423978901810862,
    "lon": -100.99336624145508,
    "language": "spanish"
  },
  {
    "name": "DIGITAL 106.5 (Zacatecas) - 106.5 FM - XHLK-FM - Grupo Radiofónico ZER - Zacatecas, Zacatecas",
    "url": "https://cast.zuperdns.net/8020/stream/",
    "codec": "MP3",
    "bitrate": 96,
    "needsResolve": false,
    "lat": 22.776107313220397,
    "lon": -102.57093429565433,
    "language": "spanish"
  },
  {
    "name": "DIGITAL 89 89.5 (Tonalá) - 89.5 FM - XHNAL-FM - Radio Chiapas - Tonalá, Chiapas",
    "url": "http://streamingcwsradio10.com:9346/;",
    "codec": "AAC+",
    "bitrate": 48,
    "needsResolve": false,
    "lat": 16.09082682815858,
    "lon": -93.75582218170167,
    "language": "spanish"
  },
  {
    "name": "DIGITAL 98.5 (Xalapa) - 98.5 FM - XHWA-FM - AvanRadio - Xalapa, Veracruz",
    "url": "https://cast3.my-control-panel.com/proxy/xhtz?mp=/stream",
    "codec": "MP3",
    "bitrate": 96,
    "needsResolve": false,
    "lat": 19.54094960435244,
    "lon": -96.9119453430176,
    "language": "spanish"
  },
  {
    "name": "DIGITAL 99.5 (Guaymas) - 99.5 FM - XHDR-FM - Grupo Radio Guaymas - Guaymas, Sonora",
    "url": "https://sp5.servidorrprivado.com/8066/stream",
    "codec": "MP3",
    "bitrate": 96,
    "needsResolve": false,
    "lat": 27.923672824365305,
    "lon": -110.89719772338869,
    "language": "spanish"
  },
  {
    "name": "DINÁMICA 94.5 (Piedras Negras) - 94.5 FM - XHTA-FM - Grupo Radio Zócalo - Piedras Negras, Coahuila",
    "url": "https://playerservices.streamtheworld.com/api/livestream-redirect/XHTAFMAAC.aac",
    "codec": "AAC+",
    "bitrate": 32,
    "needsResolve": false,
    "lat": 28.691774686032197,
    "lon": -100.54065227508544,
    "language": "spanish"
  },
  {
    "name": "DK 1250 (GDL) - 1250 AM - XEDK-AM - Radiorama de Occidente - Guadalajara, Jalisco",
    "url": "https://sp2.servidorrprivado.com:10947/;",
    "codec": "AAC+",
    "bitrate": 64,
    "needsResolve": false,
    "lat": 20.67290397567901,
    "lon": -103.33971977233888,
    "language": "spanish"
  },
  {
    "name": "DSS RADIO 107.9 (Chilpancingo) - 107.9 FM - XHSCAS-FM - Digital con Sentido Social 106.3, A.C. - Chilpancingo, Guerrero",
    "url": "https://cast3.my-control-panel.com/proxy/dssradio?mp=/;",
    "codec": "MP3",
    "bitrate": 320,
    "needsResolve": false,
    "lat": 17.555134550964368,
    "lon": -99.50806617736816,
    "language": "spanish"
  },
  {
    "name": "Digital 101.5 FM",
    "url": "https://live.amperwave.net/manifest/rcomm-xhavofmaac-hlsc4.m3u8?source=v7player&user-id=ecee90d54151",
    "codec": "AAC+",
    "bitrate": 64,
    "needsResolve": false,
    "lat": null,
    "lon": null,
    "language": "spanish"
  },
  {
    "name": "Digital 80s Radio",
    "url": "http://5.79.86.158:8059/;",
    "codec": "AAC+",
    "bitrate": 128,
    "needsResolve": false,
    "lat": 19.907247596811036,
    "lon": -99.84375,
    "language": "spanish"
  },
  {
    "name": "Disco by MIX (iHeart Radio) - Online - ACIR Online / iHeart Radio - Ciudad de México",
    "url": "https://playerservices.streamtheworld.com/api/livestream-redirect/ACIR14_s01AAC.aac",
    "codec": "AAC+",
    "bitrate": 48,
    "needsResolve": false,
    "lat": 19.433409891620776,
    "lon": -99.13217067718509,
    "language": "spanish"
  },
  {
    "name": "Discos Guardados",
    "url": "http://stream.zeno.fm/1nx2aume9zquv",
    "codec": "MP3",
    "bitrate": 0,
    "needsResolve": false,
    "lat": 19.47591445465929,
    "lon": -99.19006347656251,
    "language": ""
  },
  {
    "name": "Discos Guardados",
    "url": "http://stream-151.zeno.fm/1nx2aume9zquv?zs=_wOIfEHbRUueCOW9I8aUNg",
    "codec": "MP3",
    "bitrate": 0,
    "needsResolve": false,
    "lat": 19.434089785114285,
    "lon": -99.0953063964844,
    "language": "spanish"
  },
  {
    "name": "EL FONÓGRAFO - 690 AM - XEN-AM - Grupo Radio Centro - Ciudad de México",
    "url": "https://26423.live.streamtheworld.com:443/XEN_AMAAC.aac",
    "codec": "AAC+",
    "bitrate": 32,
    "needsResolve": false,
    "lat": 19.43730512148139,
    "lon": -99.13616180419923,
    "language": "spanish"
  },
  {
    "name": "EL FONÓGRAFO - 690 AM - XEN-AM - Grupo Radio Centro - Ciudad de México",
    "url": "https://14543.live.streamtheworld.com:443/XEN_AMAAC.aac",
    "codec": "AAC+",
    "bitrate": 32,
    "needsResolve": false,
    "lat": 19.435762216933128,
    "lon": -99.13496017456056,
    "language": "spanish"
  },
  {
    "name": "EL FONÓGRAFO 690 (CDMX) - 690 AM - XEN-AM - Grupo Radio Centro - Ciudad de México",
    "url": "https://19473.live.streamtheworld.com:443/XEN_AMAAC.aac",
    "codec": "AAC+",
    "bitrate": 32,
    "needsResolve": false,
    "lat": 19.434666998742035,
    "lon": -99.1326427459717,
    "language": "spanish"
  },
  {
    "name": "EL FONÓGRAFO, Música las 24 horas (CDMX) - Online - Grupo Radio Centro - Ciudad de México",
    "url": "https://22203.live.streamtheworld.com:443/XEJP_AMAAC.aac",
    "codec": "AAC+",
    "bitrate": 32,
    "needsResolve": false,
    "lat": 19.43395750587891,
    "lon": -99.13397312164308,
    "language": "spanish"
  },
  {
    "name": "EL FONÓGRAFO: Música Ligada a tu Recuerdo",
    "url": "https://19263.live.streamtheworld.com:443/XEN_AMAAC.aac",
    "codec": "AAC+",
    "bitrate": 32,
    "needsResolve": false,
    "lat": 19.43330998027519,
    "lon": -99.1335439682007,
    "language": "spanish"
  },
  {
    "name": "EL FONÓGRAFO: Música las 24 Horas",
    "url": "https://18313.live.streamtheworld.com:443/XEJP_AMAAC.aac",
    "codec": "AAC+",
    "bitrate": 32,
    "needsResolve": false,
    "lat": 19.432986216505117,
    "lon": -99.13337230682374,
    "language": "spanish"
  },
  {
    "name": "EL HERALDO RADIO 100.3 (GDL) - 100.3 FM - XHAV-FM - Heraldo Media Group - Guadalajara, JAlisco",
    "url": "https://stream.radiojar.com/21h1m4cch8nwv",
    "codec": "MP3",
    "bitrate": 0,
    "needsResolve": false,
    "lat": 20.67322519191515,
    "lon": -103.33697319030762,
    "language": "spanish"
  },
  {
    "name": "EL HERALDO RADIO 100.3 (GDL) - 100.3 FM - XHAV-FM - Heraldo Media Group - Guadalajara, Jalisco",
    "url": "https://stream.radiojar.com/2at2c3ububkvv",
    "codec": "MP3",
    "bitrate": 0,
    "needsResolve": false,
    "lat": 20.67386762234893,
    "lon": -103.3385181427002,
    "language": "spanish"
  },
  {
    "name": "EL HERALDO RADIO 98.5 (CDMX) - 98.5 FM - XHDL-FM - Heraldo Media Group - Ciudad de México",
    "url": "http://stream.radiojar.com/g33sp4yqd6quv",
    "codec": "AAC",
    "bitrate": 0,
    "needsResolve": false,
    "lat": 19.436085975168535,
    "lon": -99.13667678833008,
    "language": "spanish"
  },
  {
    "name": "EL HERALDO RADIO HD2: Música Continua 🆕",
    "url": "https://stream.radiojar.com/rsa7zx3bh8nwv",
    "codec": "MP3",
    "bitrate": 0,
    "needsResolve": false,
    "lat": 19.434790938353725,
    "lon": -99.13393020629884,
    "language": "spanish"
  },
  {
    "name": "EL HERALDO RADIO: La \"H\" Que Sí Suena 🆕",
    "url": "https://stream.radiojar.com/ce31v3yah8nwv",
    "codec": "MP3",
    "bitrate": 0,
    "needsResolve": false,
    "lat": 19.433229039393176,
    "lon": -99.13311481475831,
    "language": "spanish"
  },
  {
    "name": "EL KUINO 96.1 (La Piedad) - 96.1 FM - XHPLPM-FM - Grupo Radiofónico ZER - La Piedad, Michoacán",
    "url": "https://live.zuperdns.net/1961/stream",
    "codec": "MP3",
    "bitrate": 24,
    "needsResolve": false,
    "lat": 20.344769034970003,
    "lon": -102.02998638153078,
    "language": "spanish"
  },
  {
    "name": "EL LOBO 106.1 (Chihuahua) - 106.1 FM - XHSU-FM - Sistema Radio Lobo - Chihuahua, Chihuahua",
    "url": "https://streamingcwsradio30.com/8172/stream",
    "codec": "AAC+",
    "bitrate": 96,
    "needsResolve": false,
    "lat": 28.63813542383955,
    "lon": -106.07840538024904,
    "language": "spanish"
  },