[
  {
    "name": "BLAZIN 99.3FM",
    "url": "https://streams.radio.co/s5f11a7ef9/listen",
    "codec": "MP3",
    "bitrate": 192,
    "needsResolve": false,
    "lat": 14.016347409192038,
    "lon": -60.9889966249466,
    "language": "english,saint lucian creole"
  },
  {
    "name": "Caribbean Hot FM 105.3 - Castries",
    "url": "http://auds2.intacs.com/caribbeanhotfm",
    "codec": "MP3",
    "bitrate": 128,
    "needsResolve": false,
    "lat": null,
    "lon": null,
    "language": "english"
  },
  {
    "name": "Caribbean KISS FM 105.5 Castries",
    "url": "http://auds2.intacs.com/caribbeankissfm",
    "codec": "MP3",
    "bitrate": 128,
    "needsResolve": false,
    "lat": null,
    "lon": null,
    "language": "english"
  },
  {
    "name": "Fire FM",
    "url": "https://tinyurl.com/firefm758",
    "codec": "MP3",
    "bitrate": 192,
    "needsResolve": false,
    "lat": null,
    "lon": null,
    "language": ""
  },
  {
    "name": "Power 97.9",
    "url": "https://usa10.fastcast4u.com/power979fm",
    "codec": "MP3",
    "bitrate": 0,
    "needsResolve": false,
    "lat": null,
    "lon": null,
    "language": ""
  },
  {
    "name": "REV-UP SLU",
    "url": "https://caribspy.com/proxy/revupslu/stream",
    "codec": "MP3",
    "bitrate": 128,
    "needsResolve": false,
    "lat": 13.73855133748402,
    "lon": -60.87524414062501,
    "language": "english"
  },
  {
    "name": "RFI 102.1 FM",
    "url": "http://167.114.131.90:5908/",
    "codec": "MP3",
    "bitrate": 128,
    "needsResolve": false,
    "lat": null,
    "lon": null,
    "language": "english"
  },
  {
    "name": "RFI 102.1 FM",
    "url": "http://cp.usa3.fastcast4u.com:5908/;",
    "codec": "MP3",
    "bitrate": 128,
    "needsResolve": false,
    "lat": 13.857226397744038,
    "lon": -61.053836345672615,
    "language": "english"
  },
  {
    "name": "RFI 1021 fM",
    "url": "https://usa3.fastcast4u.com/proxy/vaoctave?mp=/1",
    "codec": "MP3",
    "bitrate": 128,
    "needsResolve": false,
    "lat": 13.874046529349176,
    "lon": -61.02433725744844,
    "language": ""
  },
  {
    "name": "RJL Radio",
    "url": "https://s3.radio.co/sc5bdee4a4/listen",
    "codec": "MP3",
    "bitrate": 128,
    "needsResolve": false,
    "lat": 13.769908672267649,
    "lon": -60.96553802490235,
    "language": ""
  },
  {
    "name": "The Wave 94.5 & 93.7 Castries",
    "url": "http://ice66.securenetsystems.net/THEWAVE",
    "codec": "AAC+",
    "bitrate": 32,
    "needsResolve": false,
    "lat": null,
    "lon": null,
    "language": "english"
  },
  {
    "name": "Unity FM 905",
    "url": "http://centova12.instainternet.com:8192/;",
    "codec": "MP3",
    "bitrate": 128,
    "needsResolve": false,
    "lat": 14.009612426781622,
    "lon": -60.98961353302003,
    "language": "english"
  },
  {
    "name": "Vibe Radio 100.9 & 92.9 Vigie",
    "url": "http://45.79.186.124/proxy/vyberadio?mp=/stream",
    "codec": "MP3",
    "bitrate": 75,
    "needsResolve": false,
    "lat": null,
    "lon": null,
    "language": "english"
  },
  {
    "name": "reliable radio 89.9",
    "url": "https://s2.radio.co/s5fb28a34d/listen",
    "codec": "MP3",
    "bitrate": 192,
    "needsResolve": false,
    "lat": 13.853768067706406,
    "lon": -61.05720520019531,
    "language": "english"
  }
]